# LAS format data
~Version Information
VERS.     2.00: CWLS LOG ASCII STANDARD - VERSION 2.0
WRAP.       NO: ONE LINE PER DEPTH STEP
~Well Information
#MNEM   .UNITS    DATA                           DESCRIPTION
#----   ------    ----                           -----------
STRT    .M        2750.9004                     :First Index Value
STOP    .M        0.2002                        :Last Index Value
STEP    .M        -0.1000                       :Frame Spacing
NULL    .         -999.2500                     :Absent Value
WELL    .         PAPEKOP-01                    :Well Name   
FLD     .         PAPEKOP                       :Field Name  
CNTY    .                                       :County
STAT    .                                       :State
CTRY    .                                       :Country
LOC     .                                       :Location
API     .                                       :API Number
DATE    .                                       :Date
COMP    .         NAM                           :Company Name
SRVC    .                                       :Service Company
~Parameter Information
#MNEM   .UNITS    VALUE                          DESCRIPTION
#----   ------    -----                          -----------
TDL     .M        2751.00000                    :Total Depth (Logger)
TDD     .M        2751.00000                    :Total Depth (Driller)   
UBID    .         2659                          :Unique Borehole Id  
PDAT    .         Mean Sea Level                :Permanent Datum 
EPD     .M           0.00000                    :Elevation of Permanent Datum (PDAT) above Mean Sea Level
LMF     .                                       :Logging Measured From (Name of Logging Elevation Reference) 
APD     .M           7.90000                    :Elevation of Depth Reference (LMF) Above Permanent Datum
~Curve Information
#MNEM   .UNITS    API CODE                       CURVE DESCRIPTION
#----   ------    --------                       -----------------
DEPT    .M                                      :1     Index curve
GR      .GAPI                                   :2     SNAM  
DT      .US/F                                   :3     SNAM  
RHOB    .G/C3                                   :4     SNAM  
DRHO    .G/C3                                   :5     SNAM  
NPHI    .V/V                                    :6     SNAM  
~Ascii Log Data
# ...
    2606.9005    189.038147     84.154175      2.605511      0.005129      0.310096
    2606.8005    181.425812     87.581177      2.579290      0.004025      0.320028
    2606.7005    174.740601     89.809937      2.525492     -0.000017      0.333881
    2606.6005    170.790771     90.284180      2.453188     -0.006941      0.347945
    2606.5005    169.832672     88.772644      2.391737     -0.014685      0.354569
    2606.4005    170.774536     85.387604      2.359569     -0.020923      0.350509
    2606.3005    171.999268     80.525421      2.362882     -0.023955      0.335589
    2606.2005    172.223267     75.450104      2.417187     -0.021410      0.306807
    2606.1005    171.144989     71.322021      2.526770     -0.012050      0.266676
    2606.0005    169.357605     68.428406      2.640971     -0.000774      0.228112
    2605.9005    168.061371     66.650360      2.705818      0.005530      0.202616
    2605.8005    168.302307     65.829453      2.725976      0.006644      0.188998
    2605.7005    170.585327     65.859848      2.728833      0.005720      0.180195
    2605.6005    174.716370     66.596649      2.728647      0.004194      0.172496
    2605.5005    180.150757     67.653687      2.728304      0.001809      0.165995
    2605.4005    185.603790     68.601074      2.728049     -0.001580      0.162918
    2605.3005    189.732239     69.417511      2.728406     -0.005450      0.164938
    2605.2005    192.116638     70.143448      2.729492     -0.009056      0.172176
    2605.1005    193.163727     70.527100      2.730300     -0.011442      0.182881
    2605.0005    193.636261     70.285172      2.730637     -0.012251      0.193797
    2604.9005    194.182648     69.429138      2.731796     -0.011842      0.202860
    2604.8005    194.896790     68.332230      2.732562     -0.010690      0.209050
    2604.7005    195.518646     67.427307      2.730716     -0.009381      0.213500
    2604.6005    195.921356     66.926300      2.723172     -0.008196      0.218887
    2604.5005    196.563995     66.816849      2.709499     -0.006615      0.228161
    2604.4005    198.164124     67.313644      2.693968     -0.004218      0.242165
    2604.3005    200.609924     68.716324      2.682695     -0.001882      0.255285
    2604.2005    202.803650     70.780518      2.679840     -0.000793      0.260369
    2604.1005    204.035980     72.750977      2.683734     -0.001191      0.255047
    2604.0005    204.171844     73.738327      2.688997     -0.002095      0.241797
    2603.9005    203.740540     73.653442      2.692449      0.001295      0.225943
    2603.8005    203.405884     72.739502      2.688871      0.013978      0.215401
    2603.7005    203.416992     71.380219      2.672943      0.033367      0.218262
    2603.6005    202.329376     69.810654      2.647575      0.051794      0.234017
    2603.5005    196.592194     68.894684      2.623298      0.059144      0.250375
    2603.4005    183.834320     69.507385      2.606376      0.053245      0.251636
    2603.3005    163.399353     71.519531      2.606573      0.040578      0.233568
    2603.2005    137.626801     73.611588      2.632861      0.030561      0.198636
    2603.1005    111.548416     74.221954      2.672827      0.028409      0.155006
    2603.0005     89.630951     73.162766      2.702390      0.029951      0.115264
    2602.9005     75.091339     71.240128      2.705823      0.028195      0.090336
    2602.8005     67.762833     68.938797      2.693553      0.022106      0.079051
    2602.7005     65.682175     65.654327      2.677958      0.015443      0.075704
    2602.6005     66.386780     62.019440      2.664226      0.012207      0.076067
    2602.5005     68.530579     59.864464      2.655702      0.012239      0.078046
    2602.4005     71.464249     59.699425      2.654428      0.013902      0.080298
    2602.3005     74.421890     60.267578      2.657190      0.015278      0.081883
    2602.2005     76.972092     60.667572      2.657823      0.014020      0.082387
    2602.1005     78.910645     60.629906      2.654907      0.009886      0.081706
    2602.0005     80.206619     60.244667      2.652920      0.005683      0.080309
    2601.9005     81.334122     59.686386      2.653485      0.002615      0.078848
    2601.8005     83.429245     59.033401      2.657550      0.001042      0.078076
    2601.7005     88.076691     58.430717      2.669140      0.002007      0.078805
    2601.6005     96.419708     58.318382      2.687813      0.005436      0.082584
    2601.5005    108.175262     58.795685      2.708439      0.010341      0.091103
    2601.4005    121.976776     59.390411      2.729427      0.016526      0.104332
    2601.3005    134.608765     59.709999      2.747727      0.021890      0.117851
    2601.2005    141.857239     59.684868      2.758625      0.022903      0.124231
    2601.1005    141.520630     59.317673      2.762602      0.019302      0.119097
    2601.0005    133.592438     58.475769      2.763156      0.014397      0.102392
    2600.9005    120.302567     57.030998      2.762791      0.011327      0.079067
    2600.8005    104.769028     55.163033      2.761007      0.010369      0.057097
    2600.7005     90.493210     53.343361      2.756817      0.009887      0.042289
    2600.6005     79.224899     51.901817      2.750431      0.008778      0.033911
    2600.5005     71.796417     50.999603      2.742256      0.006548      0.030030
    2600.4005     67.903137     50.571373      2.734034      0.003785      0.029222
    2600.3005     66.465210     50.456039      2.727792      0.001470      0.030319
    2600.2005     66.658279     50.589966      2.723061     -0.000243      0.032638
    2600.1005     67.798386     50.939049      2.717288     -0.001424      0.035608
    2600.0005     69.305893     51.418541      2.709692     -0.001454      0.038353
    2599.9005     70.723267     51.966888      2.701208     -0.000542      0.040304
    2599.8005     71.930374     52.736679      2.693151      0.000852      0.041996
    2599.7005     73.001099     53.851837      2.687230      0.002864      0.044453
    2599.6005     74.082123     55.048515      2.685080      0.004750      0.048105
    2599.5005     75.340927     55.899391      2.686632      0.005844      0.052650
    2599.4005     76.808945     56.303513      2.690000      0.006909      0.057328
    2599.3005     78.304382     56.568420      2.693712      0.008288      0.061015
    2599.2005     79.511780     56.917107      2.697317      0.009434      0.062792
    2599.1005     80.083176     57.181168      2.699781      0.010128      0.062314
    2599.0005     79.734085     57.165131      2.699849      0.009989      0.059662
    2598.9005     78.362381     57.031944      2.697309      0.008285      0.055650
    2598.8005     76.116623     57.043892      2.693104      0.004977      0.051880
    2598.7005     73.359131     57.081078      2.688570      0.000932      0.049523
    2598.6005     70.592392     56.831200      2.684815     -0.003005      0.048617
    2598.5005     68.300385     56.316978      2.682396     -0.006534      0.048500
    2598.4005     66.694321     55.889206      2.680675     -0.009450      0.048290
    2598.3005     65.794113     55.757935      2.678148     -0.011209      0.047230
    2598.2005     65.538498     55.854393      2.673473     -0.011493      0.045017
    2598.1005     65.806000     56.131447      2.666469     -0.010740      0.042035
    2598.0005     66.379852     56.641930      2.658363     -0.009894      0.039263
    2597.9005     66.958099     57.316864      2.650745     -0.009674      0.037683
    2597.8005     67.323547     57.948456      2.644335     -0.010228      0.037823
    2597.7005     67.507599     58.461319      2.638386     -0.011311      0.039573
    2597.6005     67.698456     58.985100      2.632165     -0.012040      0.042528
    2597.5005     68.006439     59.575386      2.626874     -0.010890      0.046358
    2597.4005     68.460907     60.176979      2.623532     -0.006910      0.050835
