# LAS format data
~Version Information
VERS.     2.00: CWLS LOG ASCII STANDARD - VERSION 2.0
WRAP.       NO: ONE LINE PER DEPTH STEP
~Well Information
#MNEM   .UNITS    DATA                           DESCRIPTION
#----   ------    ----                           -----------
STRT    .M        2750.9004                     :First Index Value
STOP    .M        0.2002                        :Last Index Value
STEP    .M        -0.1000                       :Frame Spacing
NULL    .         -999.2500                     :Absent Value
WELL    .         PAPEKOP-01                    :Well Name   
FLD     .         PAPEKOP                       :Field Name  
CNTY    .                                       :County
STAT    .                                       :State
CTRY    .                                       :Country
LOC     .                                       :Location
API     .                                       :API Number
DATE    .                                       :Date
COMP    .         NAM                           :Company Name
SRVC    .                                       :Service Company
~Parameter Information
#MNEM   .UNITS    VALUE                          DESCRIPTION
#----   ------    -----                          -----------
TDL     .M        2751.00000                    :Total Depth (Logger)
TDD     .M        2751.00000                    :Total Depth (Driller)   
UBID    .         2659                          :Unique Borehole Id  
PDAT    .         Mean Sea Level                :Permanent Datum 
EPD     .M           0.00000                    :Elevation of Permanent Datum (PDAT) above Mean Sea Level
LMF     .                                       :Logging Measured From (Name of Logging Elevation Reference) 
APD     .M           7.90000                    :Elevation of Depth Reference (LMF) Above Permanent Datum
~Curve Information
#MNEM   .UNITS    API CODE                       CURVE DESCRIPTION
#----   ------    --------                       -----------------
DEPT    .M                                      :1     Index curve
GR      .GAPI                                   :2     SNAM  
DT      .US/F                                   :3     SNAM  
RHOB    .G/C3                                   :4     SNAM  
DRHO    .G/C3                                   :5     SNAM  
NPHI    .V/V                                    :6     SNAM  
~Ascii Log Data
# ...
    2472.5006     89.848694     54.816597      2.736845     -0.001407      0.016143
    2472.4006     90.973251     54.678703      2.740158      0.001513      0.017518
    2472.3006     93.902618     54.616074      2.742371      0.003247      0.020272
    2472.2006     97.615967     54.718735      2.742393      0.003461      0.024088
    2472.1006    101.253204     54.976540      2.740847      0.002276      0.028742
    2472.0006    104.742371     55.391991      2.740015      0.000913      0.034455
    2471.9006    108.468475     56.052330      2.741136      0.000803      0.041972
    2471.8006    112.676163     56.950134      2.743321      0.002080      0.051782
    2471.7006    117.430573     57.937584      2.745501      0.003982      0.063288
    2471.6006    122.508636     58.886581      2.746919      0.005828      0.075112
    2471.5006    127.230118     59.700600      2.746700      0.007228      0.085940
    2471.4006    131.041351     60.291763      2.745046      0.007993      0.094906
    2471.3006    133.782227     60.619354      2.742823      0.007906      0.101142
    2471.2006    135.331940     60.760773      2.740140      0.006783      0.103973
    2471.1006    135.512482     60.879494      2.736926      0.004824      0.103248
    2471.0006    134.506622     61.033730      2.733829      0.002559      0.099311
    2470.9006    132.908539     60.986137      2.731472      0.000332      0.092885
    2470.8006    131.149323     60.326141      2.730072     -0.001452      0.085198
    2470.7006    129.298553     59.121460      2.729784     -0.002169      0.077855
    2470.6006    127.284714     58.196045      2.730467     -0.002099      0.071758
    2470.5006    125.160828     58.118896      2.731519     -0.002361      0.067332
    2470.4006    123.217972     58.392632      2.732642     -0.003581      0.065168
    2470.3006    122.263474     58.460983      2.734283     -0.005596      0.066525
    2470.2006    123.200760     58.484772      2.736852     -0.007504      0.072605
    2470.1006    126.329514     58.812286      2.740089     -0.008393      0.083035
    2470.0006    131.086731     59.554924      2.742828     -0.008252      0.095097
    2469.9006    136.482208     60.640694      2.743713     -0.007483      0.106115
    2469.8006    141.803467     61.922501      2.743093     -0.006162      0.115044
    2469.7006    146.345459     63.111832      2.742990     -0.004264      0.121680
    2469.6006    149.548889     64.023453      2.744513     -0.001853      0.127107
    2469.5006    151.043549     64.686249      2.747727      0.000939      0.132314
    2469.4006    150.858765     65.120941      2.752226      0.003814      0.137008
    2469.3006    149.467896     65.255768      2.756126      0.006357      0.141011
    2469.2006    147.695282     65.067230      2.757531      0.008077      0.143996
    2469.1006    146.420105     64.775986      2.756715      0.008865      0.145388
    2469.0006    146.105408     64.576431      2.754430      0.008977      0.145208
    2468.9006    146.433899     64.395920      2.750970      0.008695      0.143807
    2468.8006    146.606659     64.239548      2.746624      0.007964      0.140859
    2468.7006    146.160858     64.195465      2.741665      0.006417      0.135870
    2468.6006    145.210968     64.123444      2.736648      0.003905      0.129667
    2468.5006    143.857452     63.879280      2.731756      0.000814      0.123390
    2468.4006    142.244446     63.501503      2.727101     -0.001778      0.117988
    2468.3006    140.597168     63.038528      2.723125     -0.003471      0.114087
    2468.2006    138.622894     62.504517      2.720435     -0.004452      0.111950
    2468.1006    135.970581     61.974091      2.719897     -0.004447      0.111275
    2468.0006    133.294067     61.548332      2.721416     -0.003759      0.110821
    2467.9006    131.755737     61.282364      2.723719     -0.003571      0.109106
    2467.8006    132.391235     61.264450      2.725597     -0.004135      0.106404
    2467.7006    135.704285     61.599876      2.726707     -0.004321      0.104606
    2467.6006    141.376526     62.316048      2.726112     -0.004228      0.106155
    2467.5006    147.804352     63.271225      2.723567     -0.004667      0.112308
    2467.4006    153.397705     64.276245      2.721478     -0.004376      0.123239
    2467.3006    157.181702     65.188385      2.720443     -0.003931      0.136452
    2467.2006    159.380920     65.993042      2.718630     -0.005448      0.147252
    2467.1006    160.653412     66.679230      2.717243     -0.006971      0.153219
    2467.0006    161.285431     67.192810      2.718346     -0.006838      0.154723
    2466.9006    161.502441     67.657455      2.721340     -0.006807      0.154334
    2466.8006    161.119019     67.986786      2.725863     -0.006383      0.152782
    2466.7006    160.115204     67.965881      2.730295     -0.004817      0.150344
    2466.6006    158.978638     67.720016      2.732491     -0.003860      0.147958
    2466.5006    158.324432     67.421768      2.731462     -0.003602      0.145804
    2466.4006    158.434326     67.182907      2.728956     -0.002430      0.144068
    2466.3006    159.250519     67.248459      2.727165     -0.000068      0.144039
    2466.2006    160.096588     67.592102      2.728037      0.003029      0.146500
    2466.1006    159.874634     67.757416      2.731131      0.005577      0.150346
    2466.0006    158.273041     67.626266      2.733653      0.005825      0.154120
    2465.9006    155.948242     67.413330      2.735679      0.003635      0.156396
    2465.8006    153.805725     67.242233      2.739491      0.000993      0.156132
    2465.7006    152.301178     67.010483      2.744950     -0.000336      0.153371
    2465.6006    151.551453     66.633896      2.749554     -0.000236      0.150311
    2465.5006    151.586334     66.289337      2.752432      0.000734      0.149121
    2465.4006    152.495667     66.339676      2.754977      0.003090      0.150473
    2465.3003    153.985870     66.854050      2.755795      0.005974      0.153483
    2465.2003    155.648071     67.458725      2.751295      0.007374      0.156897
    2465.1003    157.104126     67.804596      2.743363      0.007711      0.159140
    2465.0003    157.870819     67.845276      2.736454      0.008599      0.159050
    2464.9003    157.493896     67.650208      2.733916      0.010745      0.155977
    2464.8003    156.417664     67.378799      2.739154      0.015415      0.150662
    2464.7003    155.269104     67.100143      2.750017      0.022137      0.144949
    2464.6003    153.947266     66.712372      2.757959      0.026438      0.140471
    2464.5003    152.235565     66.140091      2.756722      0.025153      0.137568
    2464.4003    150.169800     65.474945      2.748512      0.020434      0.135047
    2464.3003    147.877502     64.875488      2.738175      0.015151      0.131677
    2464.2003    145.853638     64.499802      2.728953      0.010739      0.127962
    2464.1003    144.671906     64.406921      2.722995      0.007341      0.125566
    2464.0003    144.594421     64.506088      2.722268      0.004830      0.125731
    2463.9003    145.382172     64.643372      2.724339      0.002293      0.127832
    2463.8003    146.693756     64.781738      2.725749     -0.000328      0.130445
    2463.7003    147.952576     64.912567      2.726473     -0.001786      0.132334
    2463.6003    148.636292     65.005493      2.727953     -0.001892      0.132998
    2463.5003    148.477295     64.961731      2.730665     -0.001357      0.132751
    2463.4003    147.541840     64.690964      2.733604     -0.000694      0.132747
    2463.3003    146.159424     64.340988      2.736036     -0.000476      0.133935
    2463.2003    144.952820     64.252716      2.737630     -0.001177      0.136348
    2463.1003    144.593231     64.445007      2.737800     -0.002649      0.139410
    2463.0003    145.533081     64.635880      2.735859     -0.004404      0.142725
