# LAS format data
~Version Information
VERS.     2.00: CWLS LOG ASCII STANDARD - VERSION 2.0
WRAP.       NO: ONE LINE PER DEPTH STEP
~Well Information
#MNEM   .UNITS    DATA                           DESCRIPTION
#----   ------    ----                           -----------
STRT    .M        2750.9004                     :First Index Value
STOP    .M        0.2002                        :Last Index Value
STEP    .M        -0.1000                       :Frame Spacing
NULL    .         -999.2500                     :Absent Value
WELL    .         PAPEKOP-01                    :Well Name   
FLD     .         PAPEKOP                       :Field Name  
CNTY    .                                       :County
STAT    .                                       :State
CTRY    .                                       :Country
LOC     .                                       :Location
API     .                                       :API Number
DATE    .                                       :Date
COMP    .         NAM                           :Company Name
SRVC    .                                       :Service Company
~Parameter Information
#MNEM   .UNITS    VALUE                          DESCRIPTION
#----   ------    -----                          -----------
TDL     .M        2751.00000                    :Total Depth (Logger)
TDD     .M        2751.00000                    :Total Depth (Driller)   
UBID    .         2659                          :Unique Borehole Id  
PDAT    .         Mean Sea Level                :Permanent Datum 
EPD     .M           0.00000                    :Elevation of Permanent Datum (PDAT) above Mean Sea Level
LMF     .                                       :Logging Measured From (Name of Logging Elevation Reference) 
APD     .M           7.90000                    :Elevation of Depth Reference (LMF) Above Permanent Datum
~Curve Information
#MNEM   .UNITS    API CODE                       CURVE DESCRIPTION
#----   ------    --------                       -----------------
DEPT    .M                                      :1     Index curve
GR      .GAPI                                   :2     SNAM  
DT      .US/F                                   :3     SNAM  
RHOB    .G/C3                                   :4     SNAM  
DRHO    .G/C3                                   :5     SNAM  
NPHI    .V/V                                    :6     SNAM  
~Ascii Log Data
# ...
    1186.1002    166.862549     80.923920      2.597685      0.109425   -999.250000
    1186.0002    166.065399     79.138672      2.620720      0.116482   -999.250000
    1185.9002    164.037262     77.342545      2.638252      0.099930   -999.250000
    1185.8002    160.264496     75.703979      2.659549      0.068392   -999.250000
    1185.7002    155.416809     73.902603      2.691076      0.036857   -999.250000
    1185.6002    150.820526     71.815994      2.728118      0.015439   -999.250000
    1185.5002    147.070862     69.870743      2.760169      0.005210   -999.250000
    1185.4002    144.090546     68.493805      2.776584      0.001898   -999.250000
    1185.3002    141.476135     67.734940      2.770894      0.000673   -999.250000
    1185.2002    138.745605     67.556595      2.744021     -0.000904   -999.250000
    1185.1002    135.909027     67.964676      2.702686     -0.002736   -999.250000
    1185.0002    133.422455     68.916153      2.654562     -0.004332   -999.250000
    1184.9002    132.116699     70.310959      2.607818     -0.005852   -999.250000
    1184.8002    133.051361     72.028473      2.570291     -0.006758   -999.250000
    1184.7002    136.512268     73.951538      2.544872     -0.006196   -999.250000
    1184.6002    141.681732     75.884598      2.529337     -0.004685   -999.250000
    1184.5002    147.836639     77.640915      2.520335     -0.003517   -999.250000
    1184.4002    154.571075     79.213593      2.515549     -0.003236   -999.250000
    1184.3002    160.943848     80.635361      2.514009     -0.003219   -999.250000
    1184.2002    166.301544     81.876587      2.515580     -0.002146   -999.250000
    1184.1002    170.639069     82.917160      2.519701      0.000793   -999.250000
    1184.0002    173.533630     83.723206      2.525025      0.005450   -999.250000
    1183.9002    174.481537     84.239273      2.530601      0.011929   -999.250000
    1183.8002    173.731384     84.416702      2.533992      0.018818   -999.250000
    1183.7002    172.301147     84.353928      2.531160      0.022657   -999.250000
    1183.6002    170.955994     84.264603      2.520756      0.021597   -999.250000
    1183.5002    169.644470     84.284805      2.505322      0.016723   -999.250000
    1183.4002    167.762695     84.332993      2.488274      0.010127   -999.250000
    1183.3002    164.697357     84.204468      2.473480      0.003650   -999.250000
    1183.2002    160.547516     83.880402      2.464123     -0.001342   -999.250000
    1183.1002    155.909851     83.624771      2.459521     -0.004915   -999.250000
    1183.0002    151.916840     83.602188      2.459250     -0.007364   -999.250000
    1182.9002    149.109558     83.666016      2.463418     -0.008927   -999.250000
    1182.8002    146.952057     83.596069      2.471742     -0.010048   -999.250000
    1182.7002    145.059235     83.336533      2.485317     -0.010689   -999.250000
    1182.6002    143.913116     82.902679      2.504804     -0.010387   -999.250000
    1182.5002    144.272552     82.137451      2.529641     -0.008552   -999.250000
    1182.4002    146.199097     80.944733      2.556853     -0.005275   -999.250000
    1182.3002    148.829590     79.077850      2.585209     -0.000806   -999.250000
    1182.2002    150.649231     76.185715      2.608841      0.004684   -999.250000
    1182.1002    150.923035     72.632812      2.619341      0.009659   -999.250000
    1182.0002    150.467255     69.582184      2.612129      0.012191   -999.250000
    1181.9002    151.114166     68.824341      2.588235      0.011225   -999.250000
    1181.8002    153.836700     70.424698      2.556435      0.007829   -999.250000
    1181.7002    158.352295     72.972977      2.524036      0.003702   -999.250000
    1181.6002    163.249939     75.479507      2.497749      0.001601   -999.250000
    1181.5002    167.313385     78.157211      2.477138      0.003416   -999.250000
    1181.4002    170.360657     81.643326      2.456008      0.009476   -999.250000
    1181.3002    173.055664     85.509979      2.430225      0.016026   -999.250000
    1181.2002    176.778473     88.954956      2.398956      0.019797   -999.250000
    1181.1002    181.989838     90.993439      2.368790      0.020574   -999.250000
    1181.0002    187.548523     91.986923      2.351922      0.020981   -999.250000
    1180.9002    192.515350     93.132523      2.353453      0.025057   -999.250000
    1180.8002    196.069794     94.645462      2.369045      0.036609   -999.250000
    1180.7002    198.193695     96.341568      2.381864      0.051491   -999.250000
    1180.6002    199.795776     97.985062      2.379898      0.063284   -999.250000
    1180.5002    201.462769     98.214890      2.366183      0.069540   -999.250000
    1180.4002    203.022156     96.803970      2.347984      0.070272   -999.250000
    1180.3002    203.187805     95.193863      2.331507      0.066164   -999.250000
    1180.2002    200.458893     93.996872      2.329271      0.062986   -999.250000
    1180.1002    195.150940     93.058273      2.341534      0.061899   -999.250000
    1180.0002    189.298340     92.646057      2.356927      0.059410   -999.250000
    1179.9002    185.572021     92.680222      2.373646      0.058645   -999.250000
    1179.8002    184.741821     92.581863      2.388421      0.059940   -999.250000
    1179.7002    186.272766     92.037521      2.385896      0.057093   -999.250000
    1179.6002    189.100891     91.483032      2.365942      0.053163   -999.250000
    1179.5002    192.510071     91.636246      2.325726      0.050612   -999.250000
    1179.4002    196.084686     92.727509      2.250031      0.039976   -999.250000
    1179.3002    200.055573     94.949081      2.145566      0.023274   -999.250000
    1179.2002    204.239197     98.653809      2.041652      0.012873   -999.250000
    1179.1002    207.608826    103.364990      1.952949      0.008312   -999.250000
    1179.0002    209.088715    107.618683      1.881405      0.005146   -999.250000
    1178.9002    207.938629    110.071091      1.836016      0.005448   -999.250000
    1178.8002    204.289551    111.338699      1.820484      0.011077   -999.250000
    1178.7002    198.681396    112.575790      1.840583      0.024668   -999.250000
    1178.6002    191.931580    113.052811      1.911127      0.047523   -999.250000
    1178.5002    184.293152    110.963882      2.034919      0.073058   -999.250000
    1178.4002    176.004150    104.853821      2.201509      0.090003   -999.250000
    1178.3002    167.667847     95.256699      2.392498      0.094064   -999.250000
    1178.2002    159.980011     84.397995      2.570843      0.089889   -999.250000
    1178.1002    154.166382     75.334366      2.660243      0.080365   -999.250000
    1178.0002    151.610107     70.575500      2.599993      0.064192   -999.250000
    1177.9002    152.909332     70.225006      2.439129      0.048237   -999.250000
    1177.8002    158.118042     72.952301      2.276775      0.039046   -999.250000
    1177.7002    166.679108     77.026520      2.146939      0.029859   -999.250000
    1177.6002    177.359406     81.033249      2.060518      0.017538   -999.250000
    1177.5002    188.449768     84.294647      2.025753      0.007852   -999.250000
    1177.4002    198.594330     87.144791      2.033214      0.003376   -999.250000
    1177.3002    206.185425     90.625626      2.064951      0.003307   -999.250000
    1177.2002    209.840881     95.796631      2.104917      0.006141   -999.250000
    1177.1002    209.791290    102.329636      2.144691      0.010646   -999.250000
    1177.0002    207.711426    107.452881      2.180270      0.016257   -999.250000
    1176.9002    205.920013    108.669708      2.211290      0.023910   -999.250000
    1176.8002    205.995209    107.082306      2.236615      0.034821   -999.250000
    1176.7002    208.056519    105.270691      2.249857      0.047417   -999.250000
    1176.6002    210.630524    104.419296      2.246162      0.059180   -999.250000
