# LAS format data
~Version Information
VERS.     2.00: CWLS LOG ASCII STANDARD - VERSION 2.0
WRAP.       NO: ONE LINE PER DEPTH STEP
~Well Information
#MNEM   .UNITS    DATA                           DESCRIPTION
#----   ------    ----                           -----------
STRT    .M        2750.9004                     :First Index Value
STOP    .M        0.2002                        :Last Index Value
STEP    .M        -0.1000                       :Frame Spacing
NULL    .         -999.2500                     :Absent Value
WELL    .         PAPEKOP-01                    :Well Name   
FLD     .         PAPEKOP                       :Field Name  
CNTY    .                                       :County
STAT    .                                       :State
CTRY    .                                       :Country
LOC     .                                       :Location
API     .                                       :API Number
DATE    .                                       :Date
COMP    .         NAM                           :Company Name
SRVC    .                                       :Service Company
~Parameter Information
#MNEM   .UNITS    VALUE                          DESCRIPTION
#----   ------    -----                          -----------
TDL     .M        2751.00000                    :Total Depth (Logger)
TDD     .M        2751.00000                    :Total Depth (Driller)   
UBID    .         2659                          :Unique Borehole Id  
PDAT    .         Mean Sea Level                :Permanent Datum 
EPD     .M           0.00000                    :Elevation of Permanent Datum (PDAT) above Mean Sea Level
LMF     .                                       :Logging Measured From (Name of Logging Elevation Reference) 
APD     .M           7.90000                    :Elevation of Depth Reference (LMF) Above Permanent Datum
~Curve Information
#MNEM   .UNITS    API CODE                       CURVE DESCRIPTION
#----   ------    --------                       -----------------
DEPT    .M                                      :1     Index curve
GR      .GAPI                                   :2     SNAM  
DT      .US/F                                   :3     SNAM  
RHOB    .G/C3                                   :4     SNAM  
DRHO    .G/C3                                   :5     SNAM  
NPHI    .V/V                                    :6     SNAM  
~Ascii Log Data
# ...
    1608.5002    184.451721     96.702545      2.551556      0.008554   -999.250000
    1608.4002    187.135101     96.598648      2.547999      0.011328   -999.250000
    1608.3002    189.840851     96.612549      2.545624      0.013141   -999.250000
    1608.2002    191.682343     96.687057      2.545128      0.013391   -999.250000
    1608.1002    191.814423     96.746704      2.546973      0.012318   -999.250000
    1608.0002    189.812836     96.783417      2.551385      0.011003   -999.250000
    1607.9002    186.149872     96.784515      2.558066      0.010952   -999.250000
    1607.8002    181.951538     96.667648      2.566607      0.013362   -999.250000
    1607.7002    178.460907     96.422531      2.576128      0.018251   -999.250000
    1607.6002    176.671173     96.164734      2.584045      0.023735   -999.250000
    1607.5002    176.934479     95.978500      2.586402      0.026741   -999.250000
    1607.4002    178.506653     95.861847      2.582110      0.025766   -999.250000
    1607.3002    180.362549     95.819153      2.574262      0.022215   -999.250000
    1607.2002    181.943573     95.868286      2.567292      0.019018   -999.250000
    1607.1002    182.539917     95.930832      2.564598      0.018468   -999.250000
    1607.0002    181.423767     95.840927      2.565102      0.019676   -999.250000
    1606.9002    178.973450     95.530457      2.563705      0.019046   -999.250000
    1606.8002    176.525055     95.128433      2.559047      0.015062   -999.250000
    1606.7002    175.484314     94.841370      2.554262      0.010052   -999.250000
    1606.6002    176.724854     94.768417      2.550309      0.006597   -999.250000
    1606.5002    180.077698     94.894958      2.546968      0.005888   -999.250000
    1606.4002    183.952454     95.159882      2.543531      0.007843   -999.250000
    1606.3002    186.356842     95.513031      2.537063      0.010790   -999.250000
    1606.2002    186.613586     95.981400      2.527615      0.012389   -999.250000
    1606.1002    185.798920     96.549301      2.519483      0.011150   -999.250000
    1606.0002    185.445679     97.001099      2.515223      0.007222   -999.250000
    1605.9002    186.094696     97.017578      2.514994      0.002159   -999.250000
    1605.8002    187.059814     96.442001      2.517487     -0.002407   -999.250000
    1605.7002    187.462433     95.446671      2.519690     -0.005880   -999.250000
    1605.6002    187.336670     94.523087      2.519834     -0.007481   -999.250000
    1605.5002    187.654968     94.037186      2.518708     -0.006740   -999.250000
    1605.4002    189.298737     93.954178      2.517512     -0.004846   -999.250000
    1605.3002    192.005219     94.232513      2.517240     -0.003618   -999.250000
    1605.2002    194.648987     94.994324      2.518911     -0.003479   -999.250000
    1605.1002    196.167145     96.227066      2.523573     -0.003280   -999.250000
    1605.0002    196.025574     97.546997      2.531350     -0.002005   -999.250000
    1604.9002    194.730194     98.575226      2.541017      0.000476   -999.250000
    1604.8002    193.594574     99.186798      2.549155      0.003768   -999.250000
    1604.7002    193.281708     99.545685      2.553081      0.007146   -999.250000
    1604.6002    193.596130     99.863525      2.553083      0.009988   -999.250000
    1604.5002    194.372925    100.149857      2.551536      0.011926   -999.250000
    1604.4002    195.374969    100.312546      2.551067      0.013843   -999.250000
    1604.3002    195.921295    100.312637      2.552566      0.016537   -999.250000
    1604.2002    195.164307    100.182510      2.553998      0.017687   -999.250000
    1604.1002    192.681244     99.972595      2.554175      0.016166   -999.250000
    1604.0002    189.126617     99.725204      2.553939      0.013938   -999.250000
    1603.9002    185.998627     99.465942      2.552968      0.012493   -999.250000
    1603.8002    184.341125     99.226288      2.550291      0.011743   -999.250000
    1603.7002    184.466675     99.079773      2.546241      0.011338   -999.250000
    1603.6002    185.925995     99.041946      2.542596      0.010735   -999.250000
    1603.5002    187.935059     99.042618      2.540171      0.009452   -999.250000
    1603.4002    189.542084     98.993744      2.538749      0.007569   -999.250000
    1603.3002    190.389862     98.884338      2.539071      0.005842   -999.250000
    1603.2002    190.651947     98.786789      2.540756      0.004727   -999.250000
    1603.1002    190.684326     98.766479      2.540804      0.003999   -999.250000
    1603.0002    190.840332     98.693985      2.539656      0.004450   -999.250000
    1602.9002    191.112732     98.418701      2.540581      0.007258   -999.250000
    1602.8002    191.273865     98.048416      2.544631      0.012108   -999.250000
    1602.7002    191.513885     97.703674      2.550594      0.017409   -999.250000
    1602.6002    191.872131     97.363556      2.555838      0.020911   -999.250000
    1602.5002    191.953369     96.932007      2.558023      0.021739   -999.250000
    1602.4002    192.094116     96.449951      2.556548      0.020407   -999.250000
    1602.3002    192.784485     96.102600      2.553400      0.018868   -999.250000
    1602.2002    193.500122     95.815521      2.552341      0.020279   -999.250000
    1602.1002    193.821075     95.561539      2.556522      0.025917   -999.250000
    1602.0002    193.888153     95.522690      2.564116      0.032288   -999.250000
    1601.9002    193.223145     95.729080      2.567865      0.034268   -999.250000
    1601.8002    191.363708     96.096420      2.564727      0.030837   -999.250000
    1601.7002    189.040894     96.604004      2.560275      0.026475   -999.250000
    1601.6002    186.829346     97.320602      2.556100      0.022042   -999.250000
    1601.5002    185.017212     98.177612      2.550895      0.016227   -999.250000
    1601.4002    183.755524     98.985809      2.545723      0.009779   -999.250000
    1601.3002    183.057831     99.535492      2.540307      0.003297   -999.250000
    1601.2002    182.582855     99.830124      2.534825     -0.002519   -999.250000
    1601.1002    182.066833    100.089554      2.532595     -0.006093   -999.250000
    1601.0002    181.721222    100.380615      2.534511     -0.006725   -999.250000
    1600.9002    181.933197    100.619019      2.536806     -0.005971   -999.250000
    1600.8002    182.773804    100.830002      2.536922     -0.005415   -999.250000
    1600.7002    183.987793    101.050552      2.533187     -0.005946   -999.250000
    1600.6002    185.253418    101.263458      2.525000     -0.007268   -999.250000
    1600.5002    186.500000    101.506348      2.514608     -0.007963   -999.250000
    1600.4002    187.668945    101.770325      2.505267     -0.007538   -999.250000
    1600.3002    188.904144    101.956467      2.496661     -0.007063   -999.250000
    1600.2002    190.380859    102.014267      2.487393     -0.006273   -999.250000
    1600.1002    192.042297    102.121567      2.475276     -0.003769   -999.250000
    1600.0002    193.858856    102.528061      2.458065      0.001109   -999.250000
    1599.9002    196.049164    103.260635      2.436322      0.008133   -999.250000
    1599.8002    198.540863    104.207458      2.412935      0.015404   -999.250000
    1599.7002    200.805603    105.379868      2.389430      0.020194   -999.250000
    1599.6002    202.431793    106.599304      2.369659      0.021127   -999.250000
    1599.5002    203.693054    107.555557      2.357825      0.021447   -999.250000
    1599.4002    205.037323    108.133774      2.355678      0.026989   -999.250000
    1599.3002    206.580658    108.542999      2.360756      0.039577   -999.250000
    1599.2002    207.995636    109.138443      2.369959      0.054527   -999.250000
    1599.1002    208.642639    110.043259      2.382071      0.064787   -999.250000
    1599.0002    207.929047    110.875763      2.395843      0.063841   -999.250000
