# LAS format data
~Version Information
VERS.     2.00: CWLS LOG ASCII STANDARD - VERSION 2.0
WRAP.       NO: ONE LINE PER DEPTH STEP
~Well Information
#MNEM   .UNITS    DATA                           DESCRIPTION
#----   ------    ----                           -----------
STRT    .M        2750.9004                     :First Index Value
STOP    .M        0.2002                        :Last Index Value
STEP    .M        -0.1000                       :Frame Spacing
NULL    .         -999.2500                     :Absent Value
WELL    .         PAPEKOP-01                    :Well Name   
FLD     .         PAPEKOP                       :Field Name  
CNTY    .                                       :County
STAT    .                                       :State
CTRY    .                                       :Country
LOC     .                                       :Location
API     .                                       :API Number
DATE    .                                       :Date
COMP    .         NAM                           :Company Name
SRVC    .                                       :Service Company
~Parameter Information
#MNEM   .UNITS    VALUE                          DESCRIPTION
#----   ------    -----                          -----------
TDL     .M        2751.00000                    :Total Depth (Logger)
TDD     .M        2751.00000                    :Total Depth (Driller)   
UBID    .         2659                          :Unique Borehole Id  
PDAT    .         Mean Sea Level                :Permanent Datum 
EPD     .M           0.00000                    :Elevation of Permanent Datum (PDAT) above Mean Sea Level
LMF     .                                       :Logging Measured From (Name of Logging Elevation Reference) 
APD     .M           7.90000                    :Elevation of Depth Reference (LMF) Above Permanent Datum
~Curve Information
#MNEM   .UNITS    API CODE                       CURVE DESCRIPTION
#----   ------    --------                       -----------------
DEPT    .M                                      :1     Index curve
GR      .GAPI                                   :2     SNAM  
DT      .US/F                                   :3     SNAM  
RHOB    .G/C3                                   :4     SNAM  
DRHO    .G/C3                                   :5     SNAM  
NPHI    .V/V                                    :6     SNAM  
~Ascii Log Data
# ...
    2050.1003    147.510345     59.904205      2.739841      0.011355      0.054341
    2050.0003    141.640350     57.903931      2.742084      0.011787      0.027109
    2049.9003    137.580658     56.821915      2.733358      0.011250      0.010651
    2049.8003    135.831085     56.803337      2.715457      0.009537      0.005566
    2049.7003    136.617798     57.770454      2.694297      0.007135      0.010007
    2049.6003    139.605804     59.427582      2.676102      0.004734      0.023591
    2049.5003    143.855347     61.391632      2.665862      0.003116      0.046192
    2049.4003    148.644287     63.398476      2.663895      0.002301      0.074720
    2049.3003    153.566650     65.243607      2.666026      0.001537      0.103056
    2049.2003    157.870148     66.672195      2.668445      0.000507      0.125375
    2049.1003    161.087402     67.594467      2.669625     -0.000657      0.139721
    2049.0003    163.529602     68.107666      2.668813     -0.001947      0.145726
    2048.9003    165.899536     68.425690      2.666545     -0.003037      0.144378
    2048.8003    168.537140     68.782654      2.665325     -0.002984      0.138794
    2048.7003    171.319550     69.264099      2.667584     -0.001343      0.133707
    2048.6003    174.159943     69.714645      2.673717      0.001153      0.133695
    2048.5003    176.570679     69.904694      2.681838      0.003375      0.141203
    2048.4003    177.583069     69.797424      2.688584      0.004467      0.154171
    2048.3003    176.564087     69.464737      2.691344      0.003858      0.165993
    2048.2003    173.836792     68.874542      2.689798      0.001998      0.168201
    2048.1003    170.389557     68.024521      2.685780      0.000344      0.157721
    2048.0003    167.325439     67.267807      2.681869     -0.000277      0.138887
    2047.9003    165.785919     67.044067      2.680006     -0.000099      0.120516
    2047.8003    166.216187     67.413193      2.680009      0.000153      0.110501
    2047.7003    167.779297     68.225937      2.680727     -0.000043      0.111854
    2047.6003    169.091400     69.310577      2.682040     -0.000256      0.120990
    2047.5003    169.710876     70.540131      2.683013     -0.000354      0.132333
    2047.4003    170.177856     71.692520      2.681587     -0.001025      0.142002
    2047.3003    170.911987     72.471008      2.677817     -0.002214      0.149197
    2047.2003    171.911682     72.717148      2.673584     -0.002853      0.156337
    2047.1003    173.112305     72.697006      2.670045     -0.002259      0.166100
    2047.0003    174.301666     72.837173      2.667848     -0.000584      0.178767
    2046.9003    175.253845     73.242218      2.667775      0.001997      0.192928
    2046.8003    176.229797     73.718491      2.668737      0.004525      0.205497
    2046.7003    177.706696     74.126862      2.669530      0.006146      0.214160
    2046.6003    179.466370     74.439789      2.671523      0.007090      0.217452
    2046.5003    180.825928     74.617981      2.675949      0.008029      0.215819
    2046.4003    180.919983     74.497696      2.681391      0.009080      0.210553
    2046.3003    178.736511     73.821152      2.685967      0.009836      0.203114
    2046.2003    174.407990     72.667480      2.689965      0.009913      0.194225
    2046.1003    168.753937     71.394028      2.694356      0.009165      0.181877
    2046.0003    163.040863     70.521317      2.698331      0.007506      0.165124
    2045.9003    158.017700     70.127853      2.699981      0.004290      0.144943
    2045.8003    154.901550     69.997955      2.701422      0.001172      0.126886
    2045.7003    154.394897     70.091080      2.705960      0.000383      0.118722
    2045.6003    155.559082     70.466202      2.712452      0.001280      0.125053
    2045.5003    156.777313     70.963089      2.722285      0.003030      0.142272
    2045.4003    157.389526     71.213547      2.738181      0.005413      0.159080
    2045.3003    156.816101     70.882721      2.755759      0.006092      0.167070
    2045.2003    154.426788     69.795853      2.767856      0.003670      0.161353
    2045.1003    151.244873     68.157623      2.772411      0.000136      0.143435
    2045.0003    148.480072     66.494400      2.767088     -0.002240      0.119536
    2044.9003    146.783905     65.638397      2.753430     -0.001327      0.100995
    2044.8003    146.897339     65.437622      2.737834      0.002471      0.092146
    2044.7003    149.453491     65.393158      2.726973      0.006248      0.095284
    2044.6003    153.134613     65.595169      2.722809      0.007851      0.108725
    2044.5003    156.848267     66.245255      2.724527      0.007131      0.127512
    2044.4003    160.339752     67.124100      2.730903      0.004683      0.146175
    2044.3003    162.438751     67.838882      2.737075      0.002523      0.157186
    2044.2003    162.995148     68.314987      2.739478      0.001674      0.159383
    2044.1003    162.930176     68.669403      2.736354      0.001928      0.155629
    2044.0003    163.067596     69.228333      2.728173      0.002666      0.150126
    2043.9003    163.212128     70.090408      2.717028      0.003644      0.146267
    2043.8003    163.023376     70.840164      2.706796      0.005110      0.147112
    2043.7003    162.805725     71.040421      2.699636      0.006956      0.152352
    2043.6003    162.831207     70.692047      2.695716      0.007871      0.156589
    2043.5003    162.974365     70.251160      2.695858      0.007227      0.154311
    2043.4003    163.267883     69.721405      2.701482      0.005780      0.145641
    2043.3003    163.651184     68.746353      2.711436      0.004133      0.133459
    2043.2003    163.555878     67.396774      2.723171      0.002916      0.120528
    2043.1003    162.494568     66.031204      2.733949      0.002577      0.107455
    2043.0003    160.470093     64.997955      2.738925      0.002863      0.095423
    2042.9003    157.799957     64.332733      2.736664      0.003407      0.085643
    2042.8003    155.219086     64.115219      2.730408      0.004580      0.079953
    2042.7003    153.652588     64.506363      2.724487      0.006633      0.079714
    2042.6003    153.501770     65.362198      2.719166      0.008594      0.084735
    2042.5003    154.813110     66.234055      2.713541      0.009415      0.093062
    2042.4003    157.242157     66.848389      2.708008      0.009298      0.101579
    2042.3003    160.223907     67.480331      2.702921      0.008822      0.109327
    2042.2003    163.167725     68.337601      2.698439      0.008186      0.117291
    2042.1003    165.779694     69.113815      2.695916      0.007696      0.126200
    2042.0003    167.788208     69.522308      2.698028      0.007803      0.135287
    2041.9003    169.167603     69.676712      2.705019      0.008310      0.143725
    2041.8003    170.212006     69.812943      2.713529      0.008447      0.151002
    2041.7003    170.867126     69.881210      2.719804      0.007951      0.156602
    2041.6003    170.703186     69.516815      2.723302      0.007532      0.161124
    2041.5003    169.409637     68.480057      2.726651      0.007846      0.164207
    2041.4003    166.934967     66.937881      2.732546      0.008845      0.161882
    2041.3003    163.515564     65.244675      2.742036      0.010535      0.148968
    2041.2003    160.027802     63.686493      2.751510      0.012690      0.124368
    2041.1003    157.922791     62.613701      2.753544      0.014159      0.094287
    2041.0003    157.955170     62.383881      2.743995      0.013649      0.067828
    2040.9003    159.685730     63.060699      2.724879      0.010715      0.053786
    2040.8003    162.147766     64.242233      2.702665      0.006134      0.056898
    2040.7003    164.790527     65.521210      2.684927      0.001369      0.075697
    2040.6003    167.483704     66.737976      2.677390     -0.001729      0.103369
