# LAS format data
~Version Information
VERS.     2.00: CWLS LOG ASCII STANDARD - VERSION 2.0
WRAP.       NO: ONE LINE PER DEPTH STEP
~Well Information
#MNEM   .UNITS    DATA                           DESCRIPTION
#----   ------    ----                           -----------
STRT    .M        2750.9004                     :First Index Value
STOP    .M        0.2002                        :Last Index Value
STEP    .M        -0.1000                       :Frame Spacing
NULL    .         -999.2500                     :Absent Value
WELL    .         PAPEKOP-01                    :Well Name   
FLD     .         PAPEKOP                       :Field Name  
CNTY    .                                       :County
STAT    .                                       :State
CTRY    .                                       :Country
LOC     .                                       :Location
API     .                                       :API Number
DATE    .                                       :Date
COMP    .         NAM                           :Company Name
SRVC    .                                       :Service Company
~Parameter Information
#MNEM   .UNITS    VALUE                          DESCRIPTION
#----   ------    -----                          -----------
TDL     .M        2751.00000                    :Total Depth (Logger)
TDD     .M        2751.00000                    :Total Depth (Driller)   
UBID    .         2659                          :Unique Borehole Id  
PDAT    .         Mean Sea Level                :Permanent Datum 
EPD     .M           0.00000                    :Elevation of Permanent Datum (PDAT) above Mean Sea Level
LMF     .                                       :Logging Measured From (Name of Logging Elevation Reference) 
APD     .M           7.90000                    :Elevation of Depth Reference (LMF) Above Permanent Datum
~Curve Information
#MNEM   .UNITS    API CODE                       CURVE DESCRIPTION
#----   ------    --------                       -----------------
DEPT    .M                                      :1     Index curve
GR      .GAPI                                   :2     SNAM  
DT      .US/F                                   :3     SNAM  
RHOB    .G/C3                                   :4     SNAM  
DRHO    .G/C3                                   :5     SNAM  
NPHI    .V/V                                    :6     SNAM  
~Ascii Log Data
# ...
     619.7003    192.984711    161.707550      2.024920     -0.014689   -999.250000
     619.6003    192.145905    161.283051      2.048456     -0.013911   -999.250000
     619.5003    191.033691    160.786346      2.070251     -0.010561   -999.250000
     619.4003    190.640533    160.269409      2.085903     -0.007243   -999.250000
     619.3003    191.612183    159.838318      2.092858     -0.006053   -999.250000
     619.2003    193.355988    159.518280      2.093185     -0.006320   -999.250000
     619.1003    194.652588    159.270905      2.090486     -0.005852   -999.250000
     619.0003    194.664093    159.096161      2.085576     -0.004017   -999.250000
     618.9003    193.237061    158.930023      2.080050     -0.001093   -999.250000
     618.8003    190.865845    158.701599      2.076092      0.001926   -999.250000
     618.7003    188.503082    158.435425      2.074164      0.003680   -999.250000
     618.6003    186.748627    158.126831      2.074595      0.004416   -999.250000
     618.5003    185.722717    157.745514      2.076911      0.005097   -999.250000
     618.4003    185.429321    157.344910      2.078103      0.005385   -999.250000
     618.3003    185.870728    156.949829      2.076410      0.004858   -999.250000
     618.2003    186.798340    156.563568      2.072943      0.003745   -999.250000
     618.1003    187.798615    156.287811      2.069251      0.002151   -999.250000
     618.0003    188.969025    156.213867      2.066693      0.000535   -999.250000
     617.9003    190.873077    156.308502      2.066621      0.000126   -999.250000
     617.8003    193.642456    156.535767      2.069031      0.001636   -999.250000
     617.7003    196.326355    157.004700      2.072171      0.004115   -999.250000
     617.6003    197.549866    157.773285      2.074312      0.005846   -999.250000
     617.5003    196.685303    158.619537      2.075163      0.005974   -999.250000
     617.4003    194.089722    159.257935      2.074677      0.004323   -999.250000
     617.3003    190.791260    159.681183      2.073434      0.001644   -999.250000
     617.2003    187.929810    160.036865      2.073473     -0.000246   -999.250000
     617.1003    186.132538    160.287323      2.075516     -0.000589   -999.250000
     617.0003    185.172668    160.289917      2.077575     -0.000412   -999.250000
     616.9003    184.929565    160.110352      2.077127     -0.000762   -999.250000
     616.8003    186.123627    159.985413      2.072170     -0.002149   -999.250000
     616.7003    189.096222    160.063202      2.062223     -0.003991   -999.250000
     616.6003    192.753265    160.321960      2.050102     -0.004335   -999.250000
     616.5003    195.957153    160.640320      2.039609     -0.002524   -999.250000
     616.4003    198.546051    160.934265      2.032342      0.000002   -999.250000
     616.3003    200.555145    161.238251      2.028340      0.002081   -999.250000
     616.2003    202.040009    161.636444      2.027550      0.003340   -999.250000
     616.1003    203.131744    162.115692      2.029675      0.003697   -999.250000
     616.0003    203.478638    162.563049      2.033521      0.003607   -999.250000
     615.9003    202.308807    162.911133      2.037337      0.003581   -999.250000
     615.8003    199.539825    163.209076      2.039105      0.003394   -999.250000
     615.7003    196.287872    163.561646      2.037403      0.002524   -999.250000
     615.6003    193.952728    164.028961      2.032914      0.001287   -999.250000
     615.5003    193.210693    164.559540      2.028171      0.000696   -999.250000
     615.4003    193.780182    165.081116      2.025233      0.001253   -999.250000
     615.3003    194.890381    165.598480      2.024489      0.002704   -999.250000
     615.2003    195.785950    166.051483      2.024664      0.004380   -999.250000
     615.1003    196.011963    166.271881      2.023568      0.005457   -999.250000
     615.0003    195.566864    166.267059      2.020310      0.005191   -999.250000
     614.9003    194.900665    166.264496      2.015881      0.003521   -999.250000
     614.8003    194.552917    166.402039      2.011684      0.001223   -999.250000
     614.7003    194.778046    166.635437      2.009457     -0.000309   -999.250000
     614.6003    195.607330    166.935089      2.010424      0.000168   -999.250000
     614.5003    197.087097    167.367798      2.014050      0.003022   -999.250000
     614.4003    199.051697    167.889984      2.016921      0.006194   -999.250000
     614.3003    201.186920    168.355072      2.016446      0.007241   -999.250000
     614.2003    203.120941    168.602417      2.014343      0.006094   -999.250000
     614.1003    204.652924    168.485382      2.012326      0.003919   -999.250000
     614.0003    205.754852    168.004456      2.010187      0.001646   -999.250000
     613.9003    206.253876    167.554230      2.009173      0.000866   -999.250000
     613.8003    205.979462    167.505066      2.009838      0.001911   -999.250000
     613.7003    204.930450    167.849274      2.010530      0.003350   -999.250000
     613.6003    203.360107    168.310608      2.009065      0.003325   -999.250000
     613.5003    201.465698    168.783813      2.005312      0.001878   -999.250000
     613.4003    199.700409    169.386932      2.000861      0.000580   -999.250000
     613.3003    198.743530    170.164856      1.995914      0.000095   -999.250000
     613.2003    198.948669    170.972839      1.989211      0.000178   -999.250000
     613.1003    200.366821    171.559479      1.980228      0.000609   -999.250000
     613.0003    202.909393    171.978668      1.968772      0.000814   -999.250000
     612.9003    206.334717    172.442352      1.954681      0.000358   -999.250000
     612.8003    209.836121    172.956757      1.940198     -0.000375   -999.250000
     612.7003    212.848694    173.438385      1.930931      0.001025   -999.250000
     612.6003    214.979248    173.772949      1.929625      0.005296   -999.250000
     612.5003    215.533630    173.825439      1.932611      0.008967   -999.250000
     612.4003    214.247803    173.863525      1.934529      0.009635   -999.250000
     612.3003    211.328766    174.212769      1.933151      0.007590   -999.250000
     612.2003    207.569275    174.597870      1.930312      0.004207   -999.250000
     612.1003    203.969452    174.661316      1.928941      0.001204   -999.250000
     612.0003    201.668396    175.525970      1.931377      0.000572   -999.250000
     611.9003    200.588898    179.828125      1.938639      0.003032   -999.250000
     611.8003    199.877502    186.950562      1.948417      0.006780   -999.250000
     611.7003    199.420959    192.037994      1.954893      0.008680   -999.250000
     611.6003    199.860168    195.042450      1.956945      0.009160   -999.250000
     611.5003    201.433655    197.689178      1.956941      0.009292   -999.250000
     611.4003    203.326660    199.868805      1.958470      0.008819   -999.250000
     611.3003    204.722961    201.173950      1.962329      0.007253   -999.250000
     611.2003    204.953918    201.764465      1.970089      0.004679   -999.250000
     611.1003    203.775604    201.966492      1.983523      0.002292   -999.250000
     611.0003    201.972839    202.647491      2.003396      0.001009   -999.250000
     610.9003    200.768829    204.460052      2.026275      0.001171   -999.250000
     610.8003    200.217163    205.248199      2.048519      0.002270   -999.250000
     610.7003    199.379242    198.804016      2.067026      0.004445   -999.250000
     610.6003    198.097992    184.876434      2.078828      0.007452   -999.250000
     610.5003    197.231323    172.682129      2.082463      0.010201   -999.250000
     610.4003    197.051666    168.002472      2.080278      0.013837   -999.250000
     610.3003    197.276825    167.208771      2.076056      0.019100   -999.250000
     610.2003    198.085693    167.538330      2.067894      0.021837   -999.250000
