# LAS format data
~Version Information
VERS.     2.00: CWLS LOG ASCII STANDARD - VERSION 2.0
WRAP.       NO: ONE LINE PER DEPTH STEP
~Well Information
#MNEM   .UNITS    DATA                           DESCRIPTION
#----   ------    ----                           -----------
STRT    .M        2750.9004                     :First Index Value
STOP    .M        0.2002                        :Last Index Value
STEP    .M        -0.1000                       :Frame Spacing
NULL    .         -999.2500                     :Absent Value
WELL    .         PAPEKOP-01                    :Well Name   
FLD     .         PAPEKOP                       :Field Name  
CNTY    .                                       :County
STAT    .                                       :State
CTRY    .                                       :Country
LOC     .                                       :Location
API     .                                       :API Number
DATE    .                                       :Date
COMP    .         NAM                           :Company Name
SRVC    .                                       :Service Company
~Parameter Information
#MNEM   .UNITS    VALUE                          DESCRIPTION
#----   ------    -----                          -----------
TDL     .M        2751.00000                    :Total Depth (Logger)
TDD     .M        2751.00000                    :Total Depth (Driller)   
UBID    .         2659                          :Unique Borehole Id  
PDAT    .         Mean Sea Level                :Permanent Datum 
EPD     .M           0.00000                    :Elevation of Permanent Datum (PDAT) above Mean Sea Level
LMF     .                                       :Logging Measured From (Name of Logging Elevation Reference) 
APD     .M           7.90000                    :Elevation of Depth Reference (LMF) Above Permanent Datum
~Curve Information
#MNEM   .UNITS    API CODE                       CURVE DESCRIPTION
#----   ------    --------                       -----------------
DEPT    .M                                      :1     Index curve
GR      .GAPI                                   :2     SNAM  
DT      .US/F                                   :3     SNAM  
RHOB    .G/C3                                   :4     SNAM  
DRHO    .G/C3                                   :5     SNAM  
NPHI    .V/V                                    :6     SNAM  
~Ascii Log Data
# ...
    1042.1003    204.569763    119.658203      2.422355      0.008182   -999.250000
    1042.0003    205.904449    119.898361      2.416275      0.009086   -999.250000
    1041.9003    207.814148    120.128159      2.410701      0.010054   -999.250000
    1041.8003    209.440033    120.543472      2.406954      0.011030   -999.250000
    1041.7003    210.298187    121.376999      2.404713      0.011841   -999.250000
    1041.6003    210.173401    122.474289      2.404427      0.012013   -999.250000
    1041.5003    209.251373    123.264572      2.405120      0.011707   -999.250000
    1041.4003    207.932373    123.245087      2.405878      0.011426   -999.250000
    1041.3003    206.496033    122.519608      2.407155      0.011164   -999.250000
    1041.2003    204.841949    121.442810      2.408483      0.010447   -999.250000
    1041.1003    203.172852    120.190689      2.409061      0.008844   -999.250000
    1041.0003    202.349060    118.872162      2.409582      0.006744   -999.250000
    1040.9003    203.022858    117.637497      2.410694      0.005337   -999.250000
    1040.8003    205.045532    116.839859      2.412338      0.005854   -999.250000
    1040.7003    207.385895    116.712143      2.414667      0.008755   -999.250000
    1040.6003    208.611816    117.036087      2.417540      0.013784   -999.250000
    1040.5003    207.854156    117.330261      2.419675      0.019046   -999.250000
    1040.4003    205.425293    117.506836      2.419403      0.021483   -999.250000
    1040.3003    202.461365    117.835144      2.416663      0.019994   -999.250000
    1040.2003    200.515808    118.525589      2.413534      0.016611   -999.250000
    1040.1003    200.517303    119.600159      2.411570      0.013270   -999.250000
    1040.0003    201.991272    120.987045      2.410512      0.010832   -999.250000
    1039.9003    203.459625    122.555817      2.409149      0.009450   -999.250000
    1039.8003    203.907135    123.987885      2.407098      0.009017   -999.250000
    1039.7003    203.312469    124.950348      2.404531      0.009187   -999.250000
    1039.6003    202.130829    125.349258      2.401703      0.009688   -999.250000
    1039.5003    200.974396    125.249969      2.399555      0.010572   -999.250000
    1039.4003    200.514801    124.880035      2.398834      0.011816   -999.250000
    1039.3003    200.860687    124.531631      2.399436      0.013078   -999.250000
    1039.2003    201.358185    124.377594      2.401122      0.013929   -999.250000
    1039.1003    201.377411    124.430893      2.403265      0.014124   -999.250000
    1039.0003    200.874664    124.577255      2.404852      0.013642   -999.250000
    1038.9003    200.102509    124.447235      2.405965      0.012828   -999.250000
    1038.8003    199.439056    123.466858      2.409095      0.012517   -999.250000
    1038.7003    199.190948    121.634277      2.417855      0.013200   -999.250000
    1038.6003    199.246552    119.907440      2.433885      0.014601   -999.250000
    1038.5003    199.312164    119.074814      2.455028      0.016914   -999.250000
    1038.4003    199.365265    118.915512      2.474347      0.019638   -999.250000
    1038.3003    199.496826    119.023193      2.482762      0.020150   -999.250000
    1038.2003    199.652344    119.643906      2.475722      0.017719   -999.250000
    1038.1003    199.882019    121.053741      2.457065      0.014752   -999.250000
    1038.0003    200.488342    122.772705      2.435519      0.012291   -999.250000
    1037.9003    201.670929    124.022156      2.417765      0.009873   -999.250000
    1037.8003    203.533234    124.603394      2.405439      0.007633   -999.250000
    1037.7003    206.238495    124.817993      2.397552      0.005497   -999.250000
    1037.6003    209.293182    124.910889      2.393472      0.003662   -999.250000
    1037.5003    211.384369    124.912567      2.392762      0.002759   -999.250000
    1037.4003    211.484406    124.747574      2.394374      0.002473   -999.250000
    1037.3003    209.625793    124.357147      2.396761      0.002268   -999.250000
    1037.2003    206.686768    123.753479      2.398412      0.002097   -999.250000
    1037.1003    203.687103    123.014877      2.398748      0.001787   -999.250000
    1037.0003    201.325134    122.251053      2.399059      0.001603   -999.250000
    1036.9003    199.774445    121.497726      2.402462      0.002403   -999.250000
    1036.8003    198.844116    120.799988      2.412167      0.004220   -999.250000
    1036.7003    198.204865    120.360275      2.428617      0.005775   -999.250000
    1036.6003    197.899963    120.331421      2.449521      0.006077   -999.250000
    1036.5003    198.615051    120.540634      2.469920      0.005698   -999.250000
    1036.4003    200.807037    120.752853      2.483420      0.005715   -999.250000
    1036.3003    204.132324    121.009460      2.485528      0.006620   -999.250000
    1036.2003    207.681396    121.449554      2.476835      0.008493   -999.250000
    1036.1003    210.663696    121.954971      2.461164      0.010835   -999.250000
    1036.0003    212.271881    122.163727      2.443333      0.012288   -999.250000
    1035.9003    211.986786    121.921417      2.427969      0.011450   -999.250000
    1035.8003    209.954895    121.391174      2.416884      0.008643   -999.250000
    1035.7003    206.876465    120.896255      2.409788      0.005634   -999.250000
    1035.6003    203.427063    120.690186      2.405640      0.003156   -999.250000
    1035.5003    199.980499    120.759094      2.403082      0.001216   -999.250000
    1035.4003    196.926117    120.869659      2.401199      0.000218   -999.250000
    1035.3003    194.378784    120.866272      2.400736      0.000226   -999.250000
    1035.2003    192.679993    120.848145      2.401943      0.000590   -999.250000
    1035.1003    192.349823    121.028305      2.403627      0.000746   -999.250000
    1035.0003    193.653137    121.421677      2.406394      0.001516   -999.250000
    1034.9003    196.366455    121.793610      2.409799      0.003188   -999.250000
    1034.8003    199.571808    121.928207      2.410976      0.004543   -999.250000
    1034.7003    202.014099    121.870422      2.409844      0.005300   -999.250000
    1034.6003    202.720398    121.796783      2.408189      0.005920   -999.250000
    1034.5003    202.072083    121.827454      2.406162      0.006276   -999.250000
    1034.4003    201.350037    122.071869      2.404153      0.005806   -999.250000
    1034.3003    201.619690    122.314850      2.404274      0.004654   -999.250000
    1034.2003    202.893463    121.937927      2.409600      0.003649   -999.250000
    1034.1003    204.187439    121.083664      2.424289      0.002587   -999.250000
    1034.0003    204.511902    120.449234      2.448764      0.000985   -999.250000
    1033.9003    203.442322    119.888840      2.482212     -0.000282   -999.250000
    1033.8003    201.007294    119.123657      2.510609      0.000082   -999.250000
    1033.7003    198.000488    118.463440      2.519402      0.002064   -999.250000
    1033.6003    195.484161    118.384003      2.505509      0.005114   -999.250000
    1033.5003    193.938812    118.843002      2.477566      0.008385   -999.250000
    1033.4003    192.720154    119.370895      2.444671      0.011349   -999.250000
    1033.3003    191.812042    119.697235      2.419057      0.011874   -999.250000
    1033.2003    191.727966    120.045044      2.407533      0.009843   -999.250000
    1033.1003    192.531677    120.682175      2.404980      0.007948   -999.250000
    1033.0003    194.278351    121.271011      2.405211      0.007268   -999.250000
    1032.9003    197.471069    121.418961      2.405550      0.007215   -999.250000
    1032.8003    201.729462    121.412766      2.406899      0.007696   -999.250000
    1032.7003    204.560181    121.490448      2.407939      0.008131   -999.250000
    1032.6003    204.890686    121.479218      2.407787      0.007896   -999.250000
