# LAS format data
~Version Information
VERS.     2.00: CWLS LOG ASCII STANDARD - VERSION 2.0
WRAP.       NO: ONE LINE PER DEPTH STEP
~Well Information
#MNEM   .UNITS    DATA                           DESCRIPTION
#----   ------    ----                           -----------
STRT    .M        2750.9004                     :First Index Value
STOP    .M        0.2002                        :Last Index Value
STEP    .M        -0.1000                       :Frame Spacing
NULL    .         -999.2500                     :Absent Value
WELL    .         PAPEKOP-01                    :Well Name   
FLD     .         PAPEKOP                       :Field Name  
CNTY    .                                       :County
STAT    .                                       :State
CTRY    .                                       :Country
LOC     .                                       :Location
API     .                                       :API Number
DATE    .                                       :Date
COMP    .         NAM                           :Company Name
SRVC    .                                       :Service Company
~Parameter Information
#MNEM   .UNITS    VALUE                          DESCRIPTION
#----   ------    -----                          -----------
TDL     .M        2751.00000                    :Total Depth (Logger)
TDD     .M        2751.00000                    :Total Depth (Driller)   
UBID    .         2659                          :Unique Borehole Id  
PDAT    .         Mean Sea Level                :Permanent Datum 
EPD     .M           0.00000                    :Elevation of Permanent Datum (PDAT) above Mean Sea Level
LMF     .                                       :Logging Measured From (Name of Logging Elevation Reference) 
APD     .M           7.90000                    :Elevation of Depth Reference (LMF) Above Permanent Datum
~Curve Information
#MNEM   .UNITS    API CODE                       CURVE DESCRIPTION
#----   ------    --------                       -----------------
DEPT    .M                                      :1     Index curve
GR      .GAPI                                   :2     SNAM  
DT      .US/F                                   :3     SNAM  
RHOB    .G/C3                                   :4     SNAM  
DRHO    .G/C3                                   :5     SNAM  
NPHI    .V/V                                    :6     SNAM  
~Ascii Log Data
# ...
    2184.5005    142.873657     63.952560      2.660388      0.012729      0.059337
    2184.4005    138.002350     63.471497      2.649388      0.011907      0.053782
    2184.3005    131.987823     62.374260      2.645256      0.011244      0.045746
    2184.2005    125.738205     60.885147      2.646605      0.011300      0.036054
    2184.1005    120.163345     59.217232      2.649743      0.012552      0.026738
    2184.0005    115.981277     57.765167      2.650688      0.015527      0.019587
    2183.9005    113.483185     57.229607      2.648592      0.019043      0.014935
    2183.8005    112.755600     57.699203      2.644470      0.019995      0.012650
    2183.7005    113.606613     58.494576      2.638683      0.016533      0.012070
    2183.6005    115.643555     58.982788      2.634251      0.010212      0.012506
    2183.5005    118.177109     59.308899      2.635056      0.004340      0.013663
    2183.4005    120.919296     59.905571      2.642243      0.000899      0.015482
    2183.3005    123.963318     60.653290      2.654382      0.000659      0.018010
    2183.2005    127.293167     61.106369      2.666839      0.001999      0.021983
    2183.1005    131.388489     61.238998      2.676560      0.003064      0.028422
    2183.0005    136.456116     61.575623      2.682245      0.003515      0.036689
    2182.9005    141.835175     62.346046      2.685350      0.003539      0.046105
    2182.8005    146.439911     63.213188      2.688688      0.003616      0.055837
    2182.7005    149.456024     63.662254      2.694568      0.005066      0.063215
    2182.6005    151.376831     63.695915      2.700121      0.006925      0.068395
    2182.5005    153.050537     63.744125      2.700261      0.006877      0.073427
    2182.4005    155.352112     64.202332      2.695609      0.005168      0.079571
    2182.3005    158.775726     64.993729      2.689322      0.002447      0.087665
    2182.2005    162.313477     65.569260      2.684726     -0.001192      0.096984
    2182.1005    164.317352     65.651840      2.684225     -0.005144      0.105531
    2182.0005    163.206024     65.156235      2.690210     -0.008211      0.110543
    2181.9005    158.733673     64.039124      2.701470     -0.009345      0.108917
    2181.8005    151.763336     62.494049      2.714799     -0.008849      0.099402
    2181.7005    144.032257     61.130486      2.723439     -0.007362      0.082522
    2181.6005    137.836212     60.477943      2.724007     -0.005088      0.063328
    2181.5005    135.088013     60.574928      2.721056     -0.001776      0.049879
    2181.4005    136.945343     61.442070      2.715998      0.001166      0.048682
    2181.3005    142.882141     63.200851      2.709393      0.001910      0.060896
    2181.2005    151.291901     65.238785      2.705614      0.001459      0.082331
    2181.1005    160.252563     66.599838      2.707187      0.001687      0.106694
    2181.0005    168.237457     67.423798      2.712021      0.003421      0.127679
    2180.9005    174.002045     68.073364      2.716425      0.005916      0.139926
    2180.8005    177.209229     68.455353      2.718876      0.008253      0.144070
    2180.7005    178.604980     68.686401      2.720909      0.010274      0.144490
    2180.6005    178.684174     68.916321      2.723264      0.011241      0.142079
    2180.5005    178.011780     68.990677      2.726047      0.011178      0.137358
    2180.4005    177.210999     68.774902      2.729569      0.011410      0.132056
    2180.3005    176.471649     68.209396      2.733142      0.012792      0.126641
    2180.2005    175.390869     67.354385      2.735322      0.015172      0.120795
    2180.1005    173.224945     66.518677      2.735467      0.018391      0.115310
    2180.0005    169.196320     66.132523      2.732900      0.021007      0.110817
    2179.9005    162.610321     66.387878      2.727496      0.020547      0.103305
    2179.8005    153.861633     67.649338      2.722136      0.016777      0.087931
    2179.7002    144.564819     69.587173      2.720674      0.013070      0.065337
    2179.6002    135.796448     69.969315      2.722334      0.010960      0.040678
    2179.5002    128.702820     66.176132      2.723582      0.009061      0.021353
    2179.4002    123.955490     59.388596      2.722565      0.006202      0.010638
    2179.3002    121.112106     54.375534      2.721107      0.002919      0.005703
    2179.2002    119.862106     53.752708      2.721572      0.000490      0.003443
    2179.1002    119.971741     54.694847      2.724497     -0.000611      0.002061
    2179.0002    120.943787     55.017006      2.728813     -0.000373      0.000985
    2178.9002    121.767899     54.995888      2.732318      0.000887     -0.000060
    2178.8002    121.613907     54.988487      2.732956      0.002670     -0.001176
    2178.7002    120.196930     55.010666      2.729986      0.004372     -0.002205
    2178.6002    117.681778     55.046875      2.724975      0.005579     -0.002924
    2178.5002    114.480850     55.019524      2.720296      0.006187     -0.003273
    2178.4002    111.312103     54.762558      2.716945      0.006041     -0.003331
    2178.3002    108.789261     54.351143      2.714006      0.004753     -0.003207
    2178.2002    107.280914     54.156235      2.710135      0.002045     -0.002991
    2178.1002    106.941605     54.247253      2.704545     -0.001532     -0.002809
    2178.0002    107.794083     54.338257      2.697439     -0.004829     -0.002763
    2177.9002    109.585571     54.366730      2.690093     -0.006883     -0.002805
    2177.8002    111.668594     54.540466      2.684547     -0.007137     -0.002778
    2177.7002    113.236008     54.978851      2.682323     -0.005623     -0.002531
    2177.6002    113.813171     55.483170      2.683218     -0.003400     -0.001967
    2177.5002    113.646530     55.663635      2.685695     -0.001960     -0.001102
    2177.4002    113.352188     55.436569      2.688282     -0.001474     -0.000153
    2177.3002    113.340439     55.219841      2.688742     -0.001241      0.000510
    2177.2002    113.737015     55.461037      2.684533     -0.001093      0.000669
    2177.1002    114.297485     55.987343      2.676671     -0.001066      0.000499
    2177.0002    114.581451     56.268677      2.669084     -0.000850      0.000415
    2176.9002    114.559509     56.333382      2.664063     -0.000082      0.000787
    2176.8002    114.623779     56.639572      2.662124      0.001408      0.001805
    2176.7002    115.198090     57.230453      2.663437      0.003706      0.003382
    2176.6002    116.624527     57.772675      2.667929      0.006713      0.005246
    2176.5002    119.030930     58.114166      2.675323      0.009775      0.007242
    2176.4002    122.369858     58.382149      2.685209      0.012177      0.009895
    2176.3002    126.775574     58.729568      2.695841      0.013532      0.014604
    2176.2002    132.529449     59.150581      2.704083      0.013669      0.022975
    2176.1002    139.766266     59.645897      2.708565      0.012894      0.035872
    2176.0002    147.689819     60.380302      2.710288      0.011955      0.051544
    2175.9002    154.879059     61.420128      2.710796      0.011417      0.065959
    2175.8002    160.148560     62.495834      2.710858      0.011284      0.075584
    2175.7002    162.676056     63.237091      2.710699      0.011388      0.078909
    2175.6002    162.479065     63.485313      2.710700      0.011708      0.076853
    2175.5002    160.392914     63.231979      2.711883      0.012271      0.071724
    2175.4002    157.380219     62.535378      2.715259      0.013047      0.065750
    2175.3002    154.066559     61.513062      2.719986      0.013790      0.059849
    2175.2002    151.015900     60.476585      2.721384      0.013596      0.054297
    2175.1002    148.552429     59.840202      2.714879      0.011662      0.049907
    2175.0002    146.778412     59.726425      2.702969      0.008810      0.047985
