# LAS format data
~Version Information
VERS.     2.00: CWLS LOG ASCII STANDARD - VERSION 2.0
WRAP.       NO: ONE LINE PER DEPTH STEP
~Well Information
#MNEM   .UNITS    DATA                           DESCRIPTION
#----   ------    ----                           -----------
STRT    .M        2750.9004                     :First Index Value
STOP    .M        0.2002                        :Last Index Value
STEP    .M        -0.1000                       :Frame Spacing
NULL    .         -999.2500                     :Absent Value
WELL    .         PAPEKOP-01                    :Well Name   
FLD     .         PAPEKOP                       :Field Name  
CNTY    .                                       :County
STAT    .                                       :State
CTRY    .                                       :Country
LOC     .                                       :Location
API     .                                       :API Number
DATE    .                                       :Date
COMP    .         NAM                           :Company Name
SRVC    .                                       :Service Company
~Parameter Information
#MNEM   .UNITS    VALUE                          DESCRIPTION
#----   ------    -----                          -----------
TDL     .M        2751.00000                    :Total Depth (Logger)
TDD     .M        2751.00000                    :Total Depth (Driller)   
UBID    .         2659                          :Unique Borehole Id  
PDAT    .         Mean Sea Level                :Permanent Datum 
EPD     .M           0.00000                    :Elevation of Permanent Datum (PDAT) above Mean Sea Level
LMF     .                                       :Logging Measured From (Name of Logging Elevation Reference) 
APD     .M           7.90000                    :Elevation of Depth Reference (LMF) Above Permanent Datum
~Curve Information
#MNEM   .UNITS    API CODE                       CURVE DESCRIPTION
#----   ------    --------                       -----------------
DEPT    .M                                      :1     Index curve
GR      .GAPI                                   :2     SNAM  
DT      .US/F                                   :3     SNAM  
RHOB    .G/C3                                   :4     SNAM  
DRHO    .G/C3                                   :5     SNAM  
NPHI    .V/V                                    :6     SNAM  
~Ascii Log Data
    2750.9004   -999.250000   -999.250000   -999.250000   -999.250000   -999.250000
    2750.8004   -999.250000   -999.250000   -999.250000   -999.250000   -999.250000
    2750.7004   -999.250000   -999.250000   -999.250000   -999.250000   -999.250000
    2750.6004   -999.250000   -999.250000   -999.250000   -999.250000   -999.250000
    2750.5004   -999.250000   -999.250000   -999.250000   -999.250000   -999.250000
    2750.4004   -999.250000   -999.250000   -999.250000   -999.250000   -999.250000
    2750.3004   -999.250000   -999.250000   -999.250000   -999.250000   -999.250000
    2750.2004   -999.250000   -999.250000   -999.250000   -999.250000   -999.250000
    2750.1004   -999.250000   -999.250000   -999.250000   -999.250000   -999.250000
    2750.0004   -999.250000   -999.250000   -999.250000   -999.250000   -999.250000
    2749.9004   -999.250000   -999.250000   -999.250000   -999.250000   -999.250000
    2749.8004   -999.250000   -999.250000   -999.250000   -999.250000   -999.250000
    2749.7004   -999.250000   -999.250000   -999.250000   -999.250000   -999.250000
    2749.6004   -999.250000   -999.250000   -999.250000   -999.250000   -999.250000
    2749.5004   -999.250000   -999.250000   -999.250000   -999.250000   -999.250000
    2749.4004   -999.250000   -999.250000   -999.250000   -999.250000      0.335798
    2749.3004   -999.250000   -999.250000      2.582872      0.000876      0.332897
    2749.2004   -999.250000   -999.250000      2.657426      0.007046      0.331115
    2749.1004   -999.250000   -999.250000      2.697080      0.009109      0.330112
    2749.0004   -999.250000   -999.250000      2.710764      0.006591      0.329500
    2748.9004   -999.250000   -999.250000      2.710722      0.002124      0.329002
    2748.8004   -999.250000   -999.250000      2.691291     -0.001778      0.328418
    2748.7004    224.561096   -999.250000      2.631628     -0.004990      0.327428
    2748.6004    225.479828   -999.250000      2.495029     -0.009513      0.325606
    2748.5004    225.503204   -999.250000      2.270452     -0.015659      0.323380
    2748.4004    224.495392   -999.250000      2.007113     -0.020484      0.322411
    2748.3004    222.806000   -999.250000      1.783461     -0.020921      0.323852
    2748.2004    222.100861   -999.250000      1.636082     -0.018857      0.326923
    2748.1004    222.783142   -999.250000      1.564114     -0.018654      0.330856
    2748.0004    223.972382   -999.250000      1.572210     -0.022486      0.335330
    2747.9004    225.287292   -999.250000      1.664503     -0.028324      0.339825
    2747.8004    226.402649   -999.250000      1.838315     -0.031383      0.343950
    2747.7004    226.766876   -999.250000      2.074251     -0.026984      0.347173
    2747.6004    226.693420   -999.250000      2.338596     -0.014358      0.348657
    2747.5004    226.904144   -999.250000      2.559995      0.000582      0.348642
    2747.4004    227.467743   -999.250000      2.682381      0.010225      0.349441
    2747.3004    227.998199   -999.250000      2.724181      0.013656      0.352981
    2747.2004    228.519592   -999.250000      2.732756      0.013217      0.358051
    2747.1004    229.115601   -999.250000      2.733542      0.010088      0.360972
    2747.0004    229.371521   -999.250000      2.733226      0.005263      0.358595
    2746.9004    229.345490   -999.250000      2.732913     -0.000079      0.350242
    2746.8004    229.338989   -999.250000      2.731537     -0.005338      0.337429
    2746.7004    228.772461   -999.250000      2.730059     -0.009271      0.323557
    2746.6004    227.505096   -999.250000      2.730431     -0.010605      0.312376
    2746.5004    226.181671   -999.250000      2.732881     -0.008953      0.306383
    2746.4004    224.570312   -999.250000      2.736329     -0.004688      0.306064
    2746.3004    222.379211   -999.250000      2.739632      0.001032      0.309179
    2746.2004    220.377167   -999.250000      2.742115      0.006560      0.311834
    2746.1004    219.118225   -999.250000      2.743517      0.010390      0.311192
    2746.0004    218.524811   -999.250000      2.743937      0.011394      0.307350
    2745.9004    218.619232   -999.250000      2.743597      0.009437      0.303728
    2745.8004    219.315399   -999.250000      2.742888      0.005961      0.304752
    2745.7004    219.968536   -999.250000      2.743010      0.002967      0.311830
    2745.6004    219.916504   -999.250000      2.744905      0.001620      0.321942
    2745.5004    219.134613   -999.250000      2.747295      0.002122      0.330639
    2745.4004    218.019562   -999.250000      2.747730      0.003798      0.335703
    2745.3004    217.067841   -999.250000      2.744613      0.005479      0.337282
    2745.2004    216.922211   -999.250000      2.737618      0.006148      0.336890
    2745.1004    217.739868   -999.250000      2.728581      0.005484      0.336410
    2745.0004    218.608704   -999.250000      2.720828      0.003757      0.336085
    2744.9004    218.444000   -999.250000      2.716693      0.001510      0.334679
    2744.8004    217.268768   -999.250000      2.717522     -0.000314      0.332915
    2744.7004    215.515411   -999.250000      2.722044     -0.000159      0.332500
    2744.6004    213.191101   -999.250000      2.724558      0.004117      0.332444
    2744.5004    211.310547   -999.250000      2.719830      0.014617      0.331345
    2744.4004    211.274902   -999.250000      2.709995      0.032124      0.329639
    2744.3004    212.837372   -999.250000      2.702469      0.054757      0.327490
    2744.2004    215.417236   -999.250000      2.700772      0.076054      0.325018
    2744.1004    219.216034   -999.250000      2.703036      0.090062      0.323758
    2744.0004    223.424896   -999.250000      2.708343      0.095392      0.325465
    2743.9004    226.641541   -999.250000      2.714313      0.093693      0.330042
    2743.8004    228.354736   -999.250000      2.715847      0.086261      0.335434
    2743.7004    228.530579   -999.250000      2.711531      0.074678      0.339045
    2743.6004    227.594604   -999.250000      2.705783      0.062499      0.340878
    2743.5004    226.656525   -999.250000      2.702424      0.052934      0.342992
    2743.4004    226.825531   -999.250000      2.699461      0.045279      0.345959
    2743.3004    228.079651   -999.250000      2.695784      0.038448      0.348266
    2743.2004    229.151093   -999.250000      2.694415      0.034001      0.347034
    2743.1004    228.706635   -999.250000      2.695233      0.031680      0.339685
    2743.0004    225.736359   -999.250000      2.696235      0.030264      0.326568
    2742.9004    219.898712   -999.250000      2.696633      0.029235      0.312656
    2742.8004    211.949554   -999.250000      2.693472      0.026158      0.303429
    2742.7004    203.332642   -999.250000      2.684086      0.021424      0.300648
    2742.6004    195.820465   -999.250000      2.665541      0.018820      0.301566
    2742.5004    189.937653   -999.250000      2.620364      0.015831      0.300231
    2742.4004    185.905640   -999.250000      2.555919      0.010755      0.290242
    2742.3004    183.630859   -999.250000      2.511530      0.008285      0.269575
    2742.2004    181.971924   -999.250000      2.505339      0.008992      0.239873
    2742.1004    180.284668   -999.250000      2.539964      0.012965      0.206913
    2742.0004    179.006958   -999.250000      2.620453      0.024493      0.178560
    2741.9004    177.415466   -999.250000      2.710397      0.038406      0.158972
    2741.8004    173.742249   -999.250000      2.762515      0.045414      0.149131
    2741.7004    166.999084   -999.250000      2.780089      0.045632      0.144771
    2741.6004    156.466583   -999.250000      2.783070      0.040932      0.140450
    2741.5004    143.856293   -999.250000      2.780923      0.032402      0.133815
    2741.4004    131.395142   -999.250000      2.779283      0.022235      0.124578
