# LAS format data
~Version Information
VERS.     2.00: CWLS LOG ASCII STANDARD - VERSION 2.0
WRAP.       NO: ONE LINE PER DEPTH STEP
~Well Information
#MNEM   .UNITS    DATA                           DESCRIPTION
#----   ------    ----                           -----------
STRT    .M        2750.9004                     :First Index Value
STOP    .M        0.2002                        :Last Index Value
STEP    .M        -0.1000                       :Frame Spacing
NULL    .         -999.2500                     :Absent Value
WELL    .         PAPEKOP-01                    :Well Name   
FLD     .         PAPEKOP                       :Field Name  
CNTY    .                                       :County
STAT    .                                       :State
CTRY    .                                       :Country
LOC     .                                       :Location
API     .                                       :API Number
DATE    .                                       :Date
COMP    .         NAM                           :Company Name
SRVC    .                                       :Service Company
~Parameter Information
#MNEM   .UNITS    VALUE                          DESCRIPTION
#----   ------    -----                          -----------
TDL     .M        2751.00000                    :Total Depth (Logger)
TDD     .M        2751.00000                    :Total Depth (Driller)   
UBID    .         2659                          :Unique Borehole Id  
PDAT    .         Mean Sea Level                :Permanent Datum 
EPD     .M           0.00000                    :Elevation of Permanent Datum (PDAT) above Mean Sea Level
LMF     .                                       :Logging Measured From (Name of Logging Elevation Reference) 
APD     .M           7.90000                    :Elevation of Depth Reference (LMF) Above Permanent Datum
~Curve Information
#MNEM   .UNITS    API CODE                       CURVE DESCRIPTION
#----   ------    --------                       -----------------
DEPT    .M                                      :1     Index curve
GR      .GAPI                                   :2     SNAM  
DT      .US/F                                   :3     SNAM  
RHOB    .G/C3                                   :4     SNAM  
DRHO    .G/C3                                   :5     SNAM  
NPHI    .V/V                                    :6     SNAM  
~Ascii Log Data
# ...
    1742.9002    174.045807     92.349747      2.650969      0.018484   -999.250000
    1742.8002    170.973358     90.921417      2.664173      0.027713   -999.250000
    1742.7002    169.938934     90.047089      2.673545      0.038713   -999.250000
    1742.6002    170.847504     89.633026      2.676446      0.049026   -999.250000
    1742.5002    172.941437     89.624420      2.674317      0.058740   -999.250000
    1742.4002    175.642090     90.174377      2.667198      0.066338   -999.250000
    1742.3002    178.690613     91.096634      2.657269      0.069564   -999.250000
    1742.2002    182.087646     91.707932      2.649287      0.068281   -999.250000
    1742.1002    185.826874     91.401840      2.645403      0.063321   -999.250000
    1742.0002    189.074646     90.205780      2.644707      0.055518   -999.250000
    1741.9002    190.703247     88.494858      2.645508      0.045396   -999.250000
    1741.8002    189.909912     86.525574      2.646545      0.033975   -999.250000
    1741.7002    186.567932     84.278976      2.646516      0.023118   -999.250000
    1741.6002    181.191345     81.786148      2.643878      0.014018   -999.250000
    1741.5002    175.407684     79.876923      2.636749      0.007835   -999.250000
    1741.4002    171.054901     79.386429      2.623320      0.005174   -999.250000
    1741.3002    169.525543     80.510330      2.603398      0.005559   -999.250000
    1741.2002    171.994598     82.839386      2.582240      0.007747   -999.250000
    1741.1002    178.884369     86.135712      2.565445      0.011246   -999.250000
    1741.0002    188.440857     90.122513      2.556629      0.015876   -999.250000
    1740.9002    197.260620     94.030014      2.556503      0.020352   -999.250000
    1740.8002    203.008331     97.353989      2.561287      0.023469   -999.250000
    1740.7002    204.668365     99.765991      2.565615      0.025125   -999.250000
    1740.6002    203.239014    101.220657      2.569984      0.027614   -999.250000
    1740.5002    200.786926    101.969040      2.575584      0.032783   -999.250000
    1740.4002    199.241730    102.293106      2.579412      0.039553   -999.250000
    1740.3002    198.959961    102.465515      2.577005      0.043693   -999.250000
    1740.2002    199.239807    102.665482      2.566230      0.042024   -999.250000
    1740.1002    199.345093    102.883057      2.549809      0.035494   -999.250000
    1740.0002    198.845856    102.950668      2.531706      0.026806   -999.250000
    1739.9002    197.476379    102.585022      2.517806      0.019763   -999.250000
    1739.8002    195.655243    101.597366      2.512087      0.017179   -999.250000
    1739.7002    194.425812    100.069275      2.510966      0.016658   -999.250000
    1739.6002    194.483978     98.462555      2.509077      0.014451   -999.250000
    1739.5002    195.564362     97.276382      2.506905      0.011122   -999.250000
    1739.4002    197.927734     96.760223      2.504538      0.007485   -999.250000
    1739.3002    201.230469     97.126282      2.500962      0.004052   -999.250000
    1739.2002    204.080170     98.508392      2.498142      0.002509   -999.250000
    1739.1002    205.489868    100.655899      2.498724      0.003355   -999.250000
    1739.0002    205.959412    102.670425      2.502866      0.004736   -999.250000
    1738.9002    205.889984    103.773804      2.510521      0.006680   -999.250000
    1738.8002    205.055267    103.636871      2.521100      0.009663   -999.250000
    1738.7002    203.384613    102.515686      2.530312      0.011867   -999.250000
    1738.6002    200.800232    100.807343      2.534483      0.011476   -999.250000
    1738.5002    197.399170     98.616821      2.532993      0.007693   -999.250000
    1738.4002    193.556580     95.812225      2.530564      0.001679   -999.250000
    1738.3002    189.246643     92.147675      2.533713     -0.004841   -999.250000
    1738.2002    184.941925     88.171478      2.544930     -0.009462   -999.250000
    1738.1002    180.932587     84.464691      2.560764     -0.011278   -999.250000
    1738.0002    177.765106     81.901810      2.576758     -0.011186   -999.250000
    1737.9002    176.185333     81.100311      2.589575     -0.011096   -999.250000
    1737.8002    176.514557     81.829178      2.597726     -0.011735   -999.250000
    1737.7002    178.055542     83.389725      2.602970     -0.012866   -999.250000
    1737.6002    178.948181     84.914230      2.608439     -0.013743   -999.250000
    1737.5002    177.890991     85.959869      2.612932     -0.013468   -999.250000
    1737.4002    175.151337     86.351166      2.614015     -0.012012   -999.250000
    1737.3002    171.792542     86.169342      2.612780     -0.010288   -999.250000
    1737.2002    168.669922     85.736282      2.610663     -0.008901   -999.250000
    1737.1002    166.438171     85.387421      2.607662     -0.007981   -999.250000
    1737.0002    164.994019     85.074585      2.601967     -0.007141   -999.250000
    1736.9002    163.582916     84.545914      2.591842     -0.005260   -999.250000
    1736.8002    162.251434     83.879623      2.577237     -0.001802   -999.250000
    1736.7002    162.185181     83.641312      2.559636      0.002057   -999.250000
    1736.6002    164.220703     84.369583      2.542361      0.004530   -999.250000
    1736.5002    168.458466     86.216003      2.528214      0.004572   -999.250000
    1736.4002    174.353210     88.995361      2.519144      0.002399   -999.250000
    1736.3002    180.189636     92.140213      2.517027     -0.000322   -999.250000
    1736.2002    184.434448     95.008316      2.522466     -0.001943   -999.250000
    1736.1002    186.635864     96.952896      2.533474     -0.002223   -999.250000
    1736.0002    186.873291     97.544113      2.545912     -0.002024   -999.250000
    1735.9002    185.389587     96.851486      2.555919     -0.001901   -999.250000
    1735.8002    182.971893     95.378937      2.559326     -0.001391   -999.250000
    1735.7002    180.932556     93.912338      2.552982      0.000002   -999.250000
    1735.6002    180.417847     93.113449      2.536890      0.002020   -999.250000
    1735.5002    182.426636     93.470917      2.514403      0.003540   -999.250000
    1735.4002    187.585144     95.233658      2.490216      0.002627   -999.250000
    1735.3002    195.183563     98.311096      2.469621     -0.001548   -999.250000
    1735.2002    202.810120    101.967850      2.458332     -0.006924   -999.250000
    1735.1002    208.346008    105.126053      2.457675     -0.011096   -999.250000
    1735.0002    210.946777    106.991180      2.464120     -0.013229   -999.250000
    1734.9002    211.088196    107.715393      2.473214     -0.013175   -999.250000
    1734.8002    210.201904    107.987274      2.482942     -0.011396   -999.250000
    1734.7002    209.825043    108.079834      2.492640     -0.009014   -999.250000
    1734.6002    210.507355    107.807999      2.501321     -0.006812   -999.250000
    1734.5002    211.486969    107.111633      2.508082     -0.004841   -999.250000
    1734.4002    211.627319    106.323212      2.512213     -0.003097   -999.250000
    1734.3002    210.693848    105.758926      2.512859     -0.001781   -999.250000
    1734.2002    209.707916    105.424789      2.511665     -0.000673   -999.250000
    1734.1002    210.053253    105.129807      2.513469      0.000589   -999.250000
    1734.0002    212.167542    104.661392      2.522151      0.001527   -999.250000
    1733.9002    214.901794    103.797089      2.538857      0.001661   -999.250000
    1733.8002    215.721375    102.222916      2.563110      0.001276   -999.250000
    1733.7002    212.169312     99.709991      2.591646      0.000600   -999.250000
    1733.6002    203.795197     96.347977      2.618756     -0.000403   -999.250000
    1733.5002    192.178589     92.387878      2.639517     -0.001631   -999.250000
    1733.4002    179.935211     88.091492      2.651139     -0.002987   -999.250000
