# LAS format data
~Version Information
VERS.     2.00: CWLS LOG ASCII STANDARD - VERSION 2.0
WRAP.       NO: ONE LINE PER DEPTH STEP
~Well Information
#MNEM   .UNITS    DATA                           DESCRIPTION
#----   ------    ----                           -----------
STRT    .M        2750.9004                     :First Index Value
STOP    .M        0.2002                        :Last Index Value
STEP    .M        -0.1000                       :Frame Spacing
NULL    .         -999.2500                     :Absent Value
WELL    .         PAPEKOP-01                    :Well Name   
FLD     .         PAPEKOP                       :Field Name  
CNTY    .                                       :County
STAT    .                                       :State
CTRY    .                                       :Country
LOC     .                                       :Location
API     .                                       :API Number
DATE    .                                       :Date
COMP    .         NAM                           :Company Name
SRVC    .                                       :Service Company
~Parameter Information
#MNEM   .UNITS    VALUE                          DESCRIPTION
#----   ------    -----                          -----------
TDL     .M        2751.00000                    :Total Depth (Logger)
TDD     .M        2751.00000                    :Total Depth (Driller)   
UBID    .         2659                          :Unique Borehole Id  
PDAT    .         Mean Sea Level                :Permanent Datum 
EPD     .M           0.00000                    :Elevation of Permanent Datum (PDAT) above Mean Sea Level
LMF     .                                       :Logging Measured From (Name of Logging Elevation Reference) 
APD     .M           7.90000                    :Elevation of Depth Reference (LMF) Above Permanent Datum
~Curve Information
#MNEM   .UNITS    API CODE                       CURVE DESCRIPTION
#----   ------    --------                       -----------------
DEPT    .M                                      :1     Index curve
GR      .GAPI                                   :2     SNAM  
DT      .US/F                                   :3     SNAM  
RHOB    .G/C3                                   :4     SNAM  
DRHO    .G/C3                                   :5     SNAM  
NPHI    .V/V                                    :6     SNAM  
~Ascii Log Data
# ...
     763.7002    162.016052     99.078812      2.279726      0.099212   -999.250000
     763.6002    163.673767     99.093796      2.268174      0.088451   -999.250000
     763.5002    166.534454     98.801010      2.267201      0.067780   -999.250000
     763.4002    169.916534     97.415222      2.283633      0.047465   -999.250000
     763.3002    173.188263     94.569992      2.315556      0.037880   -999.250000
     763.2002    176.050659     91.107010      2.348939      0.042604   -999.250000
     763.1002    179.289764     89.428574      2.371752      0.056027   -999.250000
     763.0002    183.434692     91.294189      2.383887      0.069303   -999.250000
     762.9002    187.837341     96.510468      2.392060      0.078410   -999.250000
     762.8002    191.517639    103.860764      2.399761      0.085174   -999.250000
     762.7002    193.728638    111.722549      2.401337      0.091229   -999.250000
     762.6002    193.978577    117.997833      2.387369      0.094885   -999.250000
     762.5002    192.618378    120.424408      2.356465      0.093577   -999.250000
     762.4002    190.756317    118.486343      2.315202      0.085225   -999.250000
     762.3002    189.200867    113.765839      2.271768      0.069512   -999.250000
     762.2002    188.110077    108.630936      2.236100      0.052296   -999.250000
     762.1002    187.499786    104.830505      2.210436      0.040012   -999.250000
     762.0002    187.382996    103.675949      2.190829      0.035886   -999.250000
     761.9002    187.334564    105.687637      2.180210      0.043028   -999.250000
     761.8002    186.869690    110.021591      2.180668      0.057011   -999.250000
     761.7002    186.165863    114.737976      2.187976      0.064727   -999.250000
     761.6002    185.837799    118.827362      2.205668      0.063855   -999.250000
     761.5002    186.308929    122.454453      2.233958      0.058855   -999.250000
     761.4002    187.654480    125.310471      2.257073      0.049221   -999.250000
     761.3002    189.869751    127.121567      2.266108      0.036471   -999.250000
     761.2002    192.695526    128.222046      2.264857      0.025380   -999.250000
     761.1002    195.713715    129.439362      2.259767      0.016940   -999.250000
     761.0002    198.853516    131.255280      2.261607      0.011084   -999.250000
     760.9002    201.814117    133.311798      2.276844      0.009870   -999.250000
     760.8002    203.964020    134.878998      2.297148      0.014803   -999.250000
     760.7002    204.965485    135.693237      2.310013      0.022341   -999.250000
     760.6002    204.820770    135.721832      2.309040      0.027162   -999.250000
     760.5002    203.863617    134.796509      2.294304      0.028945   -999.250000
     760.4002    202.823547    133.136932      2.272440      0.029862   -999.250000
     760.3002    201.993347    131.077545      2.252645      0.031381   -999.250000
     760.2002    200.454742    127.831100      2.239748      0.035004   -999.250000
     760.1002    197.128906    122.955139      2.233951      0.040583   -999.250000
     760.0002    191.689636    117.019135      2.230972      0.045972   -999.250000
     759.9002    183.378571    109.563583      2.223375      0.049176   -999.250000
     759.8002    172.502167    100.349365      2.196748      0.048371   -999.250000
     759.7002    160.707550     90.236176      2.142572      0.043834   -999.250000
     759.6002    150.145691     81.695435      2.085462      0.041933   -999.250000
     759.5002    144.075287     77.214188      2.061639      0.043358   -999.250000
     759.4002    143.538361     76.006241      2.070376      0.037988   -999.250000
     759.3002    147.986206     78.171356      2.128810      0.027275   -999.250000
     759.2002    155.230835     83.512329      2.239563      0.019958   -999.250000
     759.1002    163.609039     90.083527      2.368328      0.013002   -999.250000
     759.0002    171.178467     95.314438      2.459740      0.009741   -999.250000
     758.9002    176.874237     98.413376      2.477647      0.017423   -999.250000
     758.8002    181.666779    101.238495      2.433713      0.031087   -999.250000
     758.7002    186.006744    106.068466      2.361466      0.044534   -999.250000
     758.6002    189.715729    113.070541      2.296102      0.055425   -999.250000
     758.5002    193.139740    120.340927      2.249434      0.060826   -999.250000
     758.4002    196.656464    126.153503      2.224258      0.058424   -999.250000
     758.3002    200.372101    131.019623      2.221541      0.050284   -999.250000
     758.2002    204.078339    134.749268      2.233379      0.042766   -999.250000
     758.1002    207.492920    136.968048      2.244864      0.039141   -999.250000
     758.0002    210.273285    138.369080      2.248471      0.037168   -999.250000
     757.9002    211.595551    139.127106      2.246062      0.038270   -999.250000
     757.8002    211.336823    139.027161      2.239637      0.043833   -999.250000
     757.7002    210.087341    138.240631      2.224399      0.050288   -999.250000
     757.6002    208.001099    137.097900      2.203328      0.055201   -999.250000
     757.5002    204.719177    136.110870      2.183106      0.058936   -999.250000
     757.4002    200.349854    136.278595      2.166128      0.060315   -999.250000
     757.3002    195.397766    137.613800      2.156219      0.060632   -999.250000
     757.2002    189.634857    137.070343      2.156469      0.063149   -999.250000
     757.1002    182.829041    130.609406      2.161346      0.067392   -999.250000
     757.0002    175.468781    119.550674      2.156433      0.068499   -999.250000
     756.9002    168.226379    108.722733      2.125686      0.061064   -999.250000
     756.8002    162.204803     99.700027      2.063896      0.044471   -999.250000
     756.7002    158.294128     91.674164      1.992415      0.025694   -999.250000
     756.6002    157.387177     86.480789      1.951115      0.013186   -999.250000
     756.5002    159.409210     85.341797      1.965507      0.007639   -999.250000
     756.4002    163.584656     87.406250      2.039773      0.004865   -999.250000
     756.3002    169.382996     91.472656      2.168270      0.004400   -999.250000
     756.2002    176.362396     96.302094      2.318048      0.006345   -999.250000
     756.1002    183.640411    101.249939      2.440762      0.009675   -999.250000
     756.0002    189.668213    106.065536      2.500585      0.013243   -999.250000
     755.9002    193.557129    110.995148      2.503480      0.016186   -999.250000
     755.8002    195.431244    116.347183      2.480090      0.018189   -999.250000
     755.7002    196.067291    121.959381      2.448354      0.019193   -999.250000
     755.6002    196.301880    127.156097      2.409671      0.019162   -999.250000
     755.5002    196.708008    130.993103      2.365802      0.019502   -999.250000
     755.4002    197.305420    132.884949      2.325264      0.021827   -999.250000
     755.3002    197.450775    132.721710      2.290051      0.023457   -999.250000
     755.2002    196.539307    130.551666      2.258159      0.021112   -999.250000
     755.1002    194.549622    126.736664      2.232766      0.016907   -999.250000
     755.0002    191.621124    121.814102      2.214046      0.014073   -999.250000
     754.9002    187.849152    116.314163      2.196218      0.013536   -999.250000
     754.8002    183.574524    110.503067      2.171399      0.015464   -999.250000
     754.7002    179.431610    104.751419      2.132982      0.018663   -999.250000
     754.6002    175.781799    100.081116      2.084180      0.019649   -999.250000
     754.5002    172.346558     97.543411      2.042228      0.015254   -999.250000
     754.4002    168.787109     97.054047      2.030580      0.006526   -999.250000
     754.3002    164.917206     97.271683      2.067600     -0.000962   -999.250000
     754.2002    160.919098     97.154236      2.155607     -0.002082   -999.250000
