# LAS format data
~Version Information
VERS.     2.00: CWLS LOG ASCII STANDARD - VERSION 2.0
WRAP.       NO: ONE LINE PER DEPTH STEP
~Well Information
#MNEM   .UNITS    DATA                           DESCRIPTION
#----   ------    ----                           -----------
STRT    .M        2750.9004                     :First Index Value
STOP    .M        0.2002                        :Last Index Value
STEP    .M        -0.1000                       :Frame Spacing
NULL    .         -999.2500                     :Absent Value
WELL    .         PAPEKOP-01                    :Well Name   
FLD     .         PAPEKOP                       :Field Name  
CNTY    .                                       :County
STAT    .                                       :State
CTRY    .                                       :Country
LOC     .                                       :Location
API     .                                       :API Number
DATE    .                                       :Date
COMP    .         NAM                           :Company Name
SRVC    .                                       :Service Company
~Parameter Information
#MNEM   .UNITS    VALUE                          DESCRIPTION
#----   ------    -----                          -----------
TDL     .M        2751.00000                    :Total Depth (Logger)
TDD     .M        2751.00000                    :Total Depth (Driller)   
UBID    .         2659                          :Unique Borehole Id  
PDAT    .         Mean Sea Level                :Permanent Datum 
EPD     .M           0.00000                    :Elevation of Permanent Datum (PDAT) above Mean Sea Level
LMF     .                                       :Logging Measured From (Name of Logging Elevation Reference) 
APD     .M           7.90000                    :Elevation of Depth Reference (LMF) Above Permanent Datum
~Curve Information
#MNEM   .UNITS    API CODE                       CURVE DESCRIPTION
#----   ------    --------                       -----------------
DEPT    .M                                      :1     Index curve
GR      .GAPI                                   :2     SNAM  
DT      .US/F                                   :3     SNAM  
RHOB    .G/C3                                   :4     SNAM  
DRHO    .G/C3                                   :5     SNAM  
NPHI    .V/V                                    :6     SNAM  
~Ascii Log Data
# ...
    1464.5003    196.371552     98.855026      2.510292      0.062878   -999.250000
    1464.4003    192.574219     99.129211      2.506856      0.059980   -999.250000
    1464.3003    189.307159     99.733322      2.506258      0.061770   -999.250000
    1464.2003    187.091309    100.371552      2.505616      0.066590   -999.250000
    1464.1003    186.247620    100.473343      2.508133      0.073506   -999.250000
    1464.0003    186.236298    100.056107      2.511103      0.079160   -999.250000
    1463.9003    186.124878     99.852325      2.507726      0.080862   -999.250000
    1463.8003    186.245789     99.965820      2.504456      0.083576   -999.250000
    1463.7003    187.160950    100.019943      2.504370      0.089749   -999.250000
    1463.6003    188.468750     99.960770      2.498972      0.094766   -999.250000
    1463.5003    189.514740     99.930573      2.489913      0.098007   -999.250000
    1463.4003    189.710236     99.785706      2.482918      0.097343   -999.250000
    1463.3003    188.861115     99.250305      2.474729      0.086037   -999.250000
    1463.2003    187.349121     98.629333      2.466650      0.065741   -999.250000
    1463.1003    185.859100     98.484421      2.463733      0.045453   -999.250000
    1463.0003    184.937653     98.686905      2.465118      0.029270   -999.250000
    1462.9003    185.127441     98.808029      2.468307      0.021005   -999.250000
    1462.8003    186.314178     98.677933      2.470342      0.022148   -999.250000
    1462.7003    187.603241     98.444519      2.467607      0.028159   -999.250000
    1462.6003    188.267670     98.400574      2.460286      0.034650   -999.250000
    1462.5003    188.093689     98.676605      2.452531      0.041470   -999.250000
    1462.4003    187.206940     99.115356      2.448303      0.049427   -999.250000
    1462.3003    186.528595     99.478058      2.451787      0.059253   -999.250000
    1462.2003    187.249573     99.685318      2.464121      0.070713   -999.250000
    1462.1003    189.591431     99.662308      2.480035      0.081558   -999.250000
    1462.0003    192.457764     99.347168      2.493788      0.090164   -999.250000
    1461.9003    194.341858     98.921906      2.503147      0.096149   -999.250000
    1461.8003    194.182983     98.792587      2.502642      0.096893   -999.250000
    1461.7003    192.275238     99.017426      2.489638      0.091803   -999.250000
    1461.6003    190.141907     99.159302      2.469226      0.084885   -999.250000
    1461.5003    189.567780     99.073456      2.448644      0.080509   -999.250000
    1461.4003    191.514984     99.284241      2.433814      0.080844   -999.250000
    1461.3003    195.440460    100.069244      2.429270      0.085046   -999.250000
    1461.2003    199.148773    100.754837      2.434514      0.087625   -999.250000
    1461.1003    200.557281    100.726501      2.445308      0.083201   -999.250000
    1461.0003    199.247345    100.278244      2.457452      0.072331   -999.250000
    1460.9003    196.473083     99.788834      2.466662      0.060935   -999.250000
    1460.8003    193.826233     99.115295      2.470512      0.055599   -999.250000
    1460.7003    192.378296     98.183029      2.468894      0.058433   -999.250000
    1460.6003    192.368439     97.371567      2.462327      0.064236   -999.250000
    1460.5003    193.176361     97.177963      2.453214      0.065925   -999.250000
    1460.4003    193.848785     97.690491      2.445986      0.062252   -999.250000
    1460.3003    193.992432     98.549057      2.442066      0.058117   -999.250000
    1460.2003    193.855011     99.273209      2.438944      0.058888   -999.250000
    1460.1003    193.867462     99.664825      2.434263      0.066049   -999.250000
    1460.0003    194.381927     99.915802      2.428541      0.077090   -999.250000
    1459.9003    195.491150    100.114716      2.424531      0.087271   -999.250000
    1459.8003    196.867737    100.081238      2.425237      0.092318   -999.250000
    1459.7003    197.922455     99.911270      2.432181      0.092190   -999.250000
    1459.6003    198.213379    100.004852      2.444391      0.091466   -999.250000
    1459.5003    197.588226    100.409943      2.458025      0.094527   -999.250000
    1459.4003    196.330811    100.766891      2.467672      0.100778   -999.250000
    1459.3003    195.303589    100.968155      2.471076      0.105796   -999.250000
    1459.2003    195.201996    101.101074      2.469368      0.104422   -999.250000
    1459.1003    195.792511    100.876343      2.463827      0.093133   -999.250000
    1459.0003    196.484558    100.296082      2.459934      0.075454   -999.250000
    1458.9003    196.839996    100.103424      2.464565      0.060858   -999.250000
    1458.8003    196.405365    100.657669      2.474751      0.055241   -999.250000
    1458.7003    195.177155    101.461670      2.484163      0.058803   -999.250000
    1458.6003    193.974548    102.009506      2.491387      0.067708   -999.250000
    1458.5003    193.546356    102.290359      2.493912      0.073833   -999.250000
    1458.4003    193.910614    102.292374      2.491514      0.072180   -999.250000
    1458.3003    194.713135    101.784912      2.489134      0.065482   -999.250000
    1458.2003    195.591400    100.911575      2.486873      0.057408   -999.250000
    1458.1003    196.093079    100.209045      2.481336      0.050232   -999.250000
    1458.0003    195.764618    100.079132      2.472418      0.045563   -999.250000
    1457.9003    194.542511    100.486420      2.460057      0.041059   -999.250000
    1457.8003    192.911072    100.900940      2.447153      0.035221   -999.250000
    1457.7003    191.664337    100.833557      2.440125      0.031659   -999.250000
    1457.6003    191.593994    100.528702      2.440517      0.034669   -999.250000
    1457.5003    193.111786    100.383347      2.443873      0.043885   -999.250000
    1457.4003    195.539490    100.163681      2.446029      0.055354   -999.250000
    1457.3003    197.418854     99.542175      2.447110      0.066398   -999.250000
    1457.2003    197.737946     98.890854      2.448015      0.074699   -999.250000
    1457.1003    196.670502     98.876999      2.447743      0.078403   -999.250000
    1457.0003    194.905273     99.322983      2.445837      0.079276   -999.250000
    1456.9003    192.903931     99.594025      2.443102      0.080454   -999.250000
    1456.8003    190.995300     99.639908      2.440732      0.083142   -999.250000
    1456.7003    189.929138     99.772324      2.443273      0.088834   -999.250000
    1456.6003    190.195953    100.044586      2.452048      0.097989   -999.250000
    1456.5003    191.804596    100.161026      2.462353      0.109028   -999.250000
    1456.4003    194.464874     99.769470      2.469488      0.118767   -999.250000
    1456.3003    197.392609     98.901993      2.472030      0.124457   -999.250000
    1456.2003    199.540680     98.046860      2.468525      0.123080   -999.250000
    1456.1003    200.580750     97.650192      2.462127      0.114741   -999.250000
    1456.0003    201.131622     97.768860      2.455625      0.101894   -999.250000
    1455.9003    201.610718     98.349792      2.443551      0.087016   -999.250000
    1455.8003    202.158966     99.209579      2.420852      0.072053   -999.250000
    1455.7003    202.869934    100.177048      2.388833      0.058414   -999.250000
    1455.6003    203.693695    101.065338      2.358108      0.051152   -999.250000
    1455.5003    204.797760    101.717529      2.337780      0.053950   -999.250000
    1455.4003    206.250336    102.047958      2.329558      0.066351   -999.250000
    1455.3003    207.116150    102.076538      2.333500      0.083432   -999.250000
    1455.2003    206.542816    101.750137      2.347288      0.102102   -999.250000
    1455.1003    204.592651    100.959946      2.365290      0.119283   -999.250000
    1455.0003    202.110840    100.183960      2.383433      0.128034   -999.250000
