# LAS format data
~Version Information
VERS.     2.00: CWLS LOG ASCII STANDARD - VERSION 2.0
WRAP.       NO: ONE LINE PER DEPTH STEP
~Well Information
#MNEM   .UNITS    DATA                           DESCRIPTION
#----   ------    ----                           -----------
STRT    .M        2750.9004                     :First Index Value
STOP    .M        0.2002                        :Last Index Value
STEP    .M        -0.1000                       :Frame Spacing
NULL    .         -999.2500                     :Absent Value
WELL    .         PAPEKOP-01                    :Well Name   
FLD     .         PAPEKOP                       :Field Name  
CNTY    .                                       :County
STAT    .                                       :State
CTRY    .                                       :Country
LOC     .                                       :Location
API     .                                       :API Number
DATE    .                                       :Date
COMP    .         NAM                           :Company Name
SRVC    .                                       :Service Company
~Parameter Information
#MNEM   .UNITS    VALUE                          DESCRIPTION
#----   ------    -----                          -----------
TDL     .M        2751.00000                    :Total Depth (Logger)
TDD     .M        2751.00000                    :Total Depth (Driller)   
UBID    .         2659                          :Unique Borehole Id  
PDAT    .         Mean Sea Level                :Permanent Datum 
EPD     .M           0.00000                    :Elevation of Permanent Datum (PDAT) above Mean Sea Level
LMF     .                                       :Logging Measured From (Name of Logging Elevation Reference) 
APD     .M           7.90000                    :Elevation of Depth Reference (LMF) Above Permanent Datum
~Curve Information
#MNEM   .UNITS    API CODE                       CURVE DESCRIPTION
#----   ------    --------                       -----------------
DEPT    .M                                      :1     Index curve
GR      .GAPI                                   :2     SNAM  
DT      .US/F                                   :3     SNAM  
RHOB    .G/C3                                   :4     SNAM  
DRHO    .G/C3                                   :5     SNAM  
NPHI    .V/V                                    :6     SNAM  
~Ascii Log Data
# ...
    1906.1004    135.077850     58.293747      2.793484      0.007721      0.086366
    1906.0004    136.222534     58.958244      2.799070      0.010943      0.087508
    1905.9004    137.020203     59.435791      2.806002      0.015569      0.087193
    1905.8004    137.031647     59.592697      2.811865      0.019806      0.085418
    1905.7004    135.876007     59.492851      2.814977      0.021638      0.082306
    1905.6004    133.713959     59.303802      2.817509      0.021746      0.078345
    1905.5004    130.948242     59.072182      2.821198      0.021001      0.074268
    1905.4004    128.067841     58.742210      2.823431      0.018587      0.070672
    1905.3004    125.614243     58.337639      2.822139      0.014369      0.067630
    1905.2004    124.132553     57.928314      2.819725      0.010750      0.064952
    1905.1004    123.692657     57.462524      2.817825      0.008782      0.062131
    1905.0004    124.230881     56.940033      2.817238      0.007857      0.059351
    1904.9004    125.281448     56.447426      2.819509      0.007637      0.057699
    1904.8004    126.172913     56.008354      2.823215      0.007798      0.058095
    1904.7004    126.741653     55.626312      2.824865      0.007685      0.060589
    1904.6004    127.271896     55.331047      2.823656      0.006992      0.064320
    1904.5004    127.937988     55.122627      2.821661      0.006625      0.068272
    1904.4004    128.754852     54.930405      2.821293      0.007562      0.071476
    1904.3004    129.543152     54.665413      2.823041      0.009238      0.073291
    1904.2004    129.823273     54.386642      2.825363      0.010686      0.073600
    1904.1004    129.374390     54.298355      2.825622      0.011797      0.073032
    1904.0004    128.821198     54.495445      2.821510      0.012598      0.072651
    1903.9004    129.368866     54.839935      2.812309      0.012807      0.073577
    1903.8004    131.987762     55.208801      2.799911      0.012708      0.076542
    1903.7004    136.771484     55.692154      2.788093      0.012883      0.081250
    1903.6004    142.697510     56.358978      2.780601      0.013098      0.086389
    1903.5004    147.992615     57.110535      2.778339      0.012696      0.090758
    1903.4004    151.258331     57.817558      2.778919      0.011724      0.094198
    1903.3004    152.085571     58.439957      2.779624      0.010930      0.097606
    1903.2004    151.111816     58.985229      2.779261      0.010691      0.102974
    1903.1004    149.391968     59.410896      2.777709      0.010606      0.111672
    1903.0004    147.787689     59.681229      2.774973      0.010007      0.122336
    1902.9004    146.634857     59.856697      2.771916      0.008416      0.131527
    1902.8004    145.895660     60.017891      2.770061      0.006273      0.135624
    1902.7004    145.405670     60.163742      2.769566      0.004849      0.133043
    1902.6004    145.078430     60.236816      2.769294      0.004993      0.126065
    1902.5004    145.027618     60.225342      2.768442      0.006688      0.119303
    1902.4004    145.358429     60.161736      2.766526      0.008978      0.115352
    1902.3004    145.825439     60.027710      2.764531      0.010599      0.113720
    1902.2004    145.996765     59.781952      2.765802      0.011538      0.113563
    1902.1004    145.745575     59.491966      2.772295      0.012755      0.114100
    1902.0004    145.284576     59.333572      2.781803      0.014588      0.114267
    1901.9004    144.851959     59.425568      2.790697      0.016567      0.114319
    1901.8004    144.598602     59.797264      2.796383      0.017970      0.115831
    1901.7004    144.666840     60.483261      2.797033      0.018111      0.119508
    1901.6004    145.103485     61.411697      2.792503      0.016501      0.124289
    1901.5004    145.758209     62.254478      2.784965      0.013259      0.128329
    1901.4004    146.507996     62.769989      2.777142      0.009550      0.130684
    1901.3004    147.453339     63.023079      2.771615      0.006919      0.131256
    1901.2004    148.519562     63.109863      2.770980      0.006111      0.129913
    1901.1004    149.223633     63.036263      2.775735      0.006737      0.126972
    1901.0004    149.246765     62.772461      2.784806      0.008126      0.123196
    1900.9004    148.677063     62.344734      2.796381      0.009803      0.119175
    1900.8004    147.422577     61.955498      2.805817      0.011064      0.115024
    1900.7004    145.300842     61.798050      2.807571      0.011211      0.110708
    1900.6004    142.806580     61.771774      2.800218      0.010337      0.106610
    1900.5004    140.838409     61.702423      2.786861      0.009115      0.103479
    1900.4004    140.181000     61.584473      2.774926      0.008179      0.101923
    1900.3004    141.105682     61.433449      2.772083      0.007682      0.101025
    1900.2004    143.079132     61.154877      2.781403      0.007450      0.097928
    1900.1004    144.556244     60.667099      2.800575      0.007486      0.090153
    1900.0004    143.946869     59.985840      2.822320      0.007670      0.077711
    1899.9004    140.832794     59.104591      2.839788      0.007739      0.062774
    1899.8004    136.441437     58.099251      2.850776      0.007812      0.048926
    1899.7004    132.403992     57.248306      2.857088      0.008422      0.038335
    1899.6004    130.040222     56.860336      2.860674      0.009914      0.031990
    1899.5004    129.835297     56.963852      2.861862      0.011834      0.029870
    1899.4004    131.628937     57.354317      2.859693      0.013245      0.031444
    1899.3004    134.924713     57.818947      2.854098      0.013584      0.036577
    1899.2004    138.730713     58.245491      2.846604      0.012903      0.044551
    1899.1004    141.917206     58.558228      2.838915      0.010950      0.053939
    1899.0004    143.578491     58.658310      2.833827      0.008116      0.061917
    1898.9004    143.451233     58.494057      2.833669      0.005352      0.066106
    1898.8004    141.476929     58.136742      2.839634      0.003867      0.065039
    1898.7004    138.188599     57.717789      2.850746      0.004111      0.059250
    1898.6004    134.251190     57.284164      2.865585      0.005359      0.050264
    1898.5004    130.268768     56.906273      2.881231      0.006554      0.040548
    1898.4004    126.457642     56.639221      2.893475      0.007368      0.032103
    1898.3004    122.847000     56.489861      2.902723      0.008110      0.025471
    1898.2004    120.113937     56.540947      2.911563      0.009015      0.021217
    1898.1004    118.541931     56.844284      2.914835      0.009738      0.019750
    1898.0004    117.862640     57.338737      2.906789      0.009710      0.022402
    1897.9004    117.971252     57.842644      2.891378      0.008311      0.029998
    1897.8004    118.333298     58.216316      2.875056      0.005254      0.040880
    1897.7004    117.708328     58.206932      2.868754      0.002463      0.048841
    1897.6004    115.945923     57.773926      2.879138      0.002635      0.048169
    1897.5004    113.778107     57.026474      2.902427      0.006344      0.038289
    1897.4004    111.712616     56.030899      2.928199      0.012402      0.024629
    1897.3004    110.183685     55.013008      2.944636      0.018347      0.013495
    1897.2004    109.820389     54.315269      2.945568      0.021512      0.007050
    1897.1004    110.850159     54.214226      2.932139      0.018699      0.005411
    1897.0004    112.586014     54.550980      2.910743      0.012282      0.006661
    1896.9004    114.400879     55.065254      2.887391      0.008706      0.009580
    1896.8004    116.249924     55.798492      2.862692      0.008079      0.014198
    1896.7004    118.030457     56.836700      2.838974      0.008859      0.022895
    1896.6004    119.337173     58.019394      2.822448      0.013090      0.038178
