# LAS format data
~Version Information
VERS.     2.00: CWLS LOG ASCII STANDARD - VERSION 2.0
WRAP.       NO: ONE LINE PER DEPTH STEP
~Well Information
#MNEM   .UNITS    DATA                           DESCRIPTION
#----   ------    ----                           -----------
STRT    .M        2750.9004                     :First Index Value
STOP    .M        0.2002                        :Last Index Value
STEP    .M        -0.1000                       :Frame Spacing
NULL    .         -999.2500                     :Absent Value
WELL    .         PAPEKOP-01                    :Well Name   
FLD     .         PAPEKOP                       :Field Name  
CNTY    .                                       :County
STAT    .                                       :State
CTRY    .                                       :Country
LOC     .                                       :Location
API     .                                       :API Number
DATE    .                                       :Date
COMP    .         NAM                           :Company Name
SRVC    .                                       :Service Company
~Parameter Information
#MNEM   .UNITS    VALUE                          DESCRIPTION
#----   ------    -----                          -----------
TDL     .M        2751.00000                    :Total Depth (Logger)
TDD     .M        2751.00000                    :Total Depth (Driller)   
UBID    .         2659                          :Unique Borehole Id  
PDAT    .         Mean Sea Level                :Permanent Datum 
EPD     .M           0.00000                    :Elevation of Permanent Datum (PDAT) above Mean Sea Level
LMF     .                                       :Logging Measured From (Name of Logging Elevation Reference) 
APD     .M           7.90000                    :Elevation of Depth Reference (LMF) Above Permanent Datum
~Curve Information
#MNEM   .UNITS    API CODE                       CURVE DESCRIPTION
#----   ------    --------                       -----------------
DEPT    .M                                      :1     Index curve
GR      .GAPI                                   :2     SNAM  
DT      .US/F                                   :3     SNAM  
RHOB    .G/C3                                   :4     SNAM  
DRHO    .G/C3                                   :5     SNAM  
NPHI    .V/V                                    :6     SNAM  
~Ascii Log Data
# ...
    2328.5004    170.640167     63.675224      2.748059      0.004246      0.120116
    2328.4004    171.202637     63.681831      2.751093      0.006571      0.126265
    2328.3004    172.665955     63.701012      2.754706      0.009188      0.129744
    2328.2004    174.643036     63.694427      2.757599      0.011303      0.129798
    2328.1004    176.494171     63.577324      2.758461      0.012333      0.126823
    2328.0004    178.015930     63.340141      2.757312      0.012633      0.122461
    2327.9004    179.445953     63.078117      2.755859      0.013014      0.118495
    2327.8004    180.737579     62.877457      2.756815      0.014320      0.116003
    2327.7004    181.542358     62.715843      2.761426      0.017044      0.115078
    2327.6004    181.723663     62.543137      2.769273      0.020524      0.115206
    2327.5004    181.251007     62.305214      2.777671      0.022655      0.115172
    2327.4004    180.076874     61.977448      2.781940      0.023028      0.114028
    2327.3004    178.649078     61.657181      2.778544      0.023409      0.111893
    2327.2004    177.935486     61.464134      2.771291      0.024972      0.109778
    2327.1004    178.372681     61.375122      2.764322      0.026943      0.108208
    2327.0004    179.297089     61.314644      2.756941      0.027600      0.106801
    2326.9004    179.505920     61.240639      2.751090      0.026279      0.104824
    2326.8004    178.481873     61.177803      2.749866      0.023303      0.102363
    2326.7004    176.920227     61.197815      2.751431      0.019131      0.100587
    2326.6004    175.818420     61.339081      2.752955      0.014556      0.100737
    2326.5004    175.770294     61.579590      2.753111      0.010704      0.103743
    2326.4004    176.792542     61.891144      2.750140      0.007827      0.109695
    2326.3004    178.387634     62.255592      2.743043      0.005472      0.117507
    2326.2004    179.719604     62.602852      2.733747      0.003642      0.124994
    2326.1004    180.256195     62.894821      2.725478      0.002659      0.130388
    2326.0004    180.079712     63.093719      2.720023      0.002497      0.132507
    2325.9004    179.567841     63.074310      2.716292      0.002446      0.130785
    2325.8004    178.768005     62.736710      2.712676      0.002081      0.125348
    2325.7004    177.457397     62.161613      2.709284      0.001806      0.117022
    2325.6004    175.648743     61.587273      2.706737      0.002230      0.107133
    2325.5004    173.828217     61.252769      2.706282      0.003848      0.097611
    2325.4004    172.668182     61.272713      2.709557      0.006870      0.091141
    2325.3004    172.543365     61.609909      2.715753      0.010705      0.090123
    2325.2004    173.390808     62.159355      2.722210      0.014487      0.095588
    2325.1004    174.899902     62.836967      2.727482      0.017529      0.106550
    2325.0004    176.491089     63.583748      2.730204      0.018133      0.120581
    2324.9004    177.115540     64.289352      2.729127      0.015258      0.134413
    2324.8004    176.181061     64.824860      2.726149      0.011165      0.145035
    2324.7004    174.293335     65.137695      2.724314      0.008205      0.150595
    2324.6004    172.163513     65.227585      2.724376      0.006585      0.150747
    2324.5004    170.104370     65.105698      2.725720      0.006480      0.146726
    2324.4004    168.665588     64.815872      2.727787      0.007333      0.140728
    2324.3004    168.330963     64.389175      2.729379      0.007465      0.134832
    2324.2004    168.805176     63.855400      2.728205      0.006350      0.130419
    2324.1004    169.640839     63.339348      2.723278      0.004732      0.127794
    2324.0004    170.872040     63.018364      2.716486      0.003427      0.126082
    2323.9004    172.522186     62.959846      2.710831      0.003154      0.123955
    2323.8004    174.250061     63.109749      2.708717      0.004122      0.121548
    2323.7004    175.916260     63.348000      2.710724      0.005808      0.120466
    2323.6004    177.678040     63.584938      2.715122      0.007800      0.121496
    2323.5004    179.179108     63.810310      2.719792      0.010181      0.123513
    2323.4004    179.747253     64.004440      2.723855      0.012895      0.124719
    2323.3004    179.181702     64.083389      2.726896      0.015135      0.123937
    2323.2004    177.685547     63.980278      2.727880      0.015991      0.120541
    2323.1004    175.375519     63.662071      2.725947      0.015463      0.114350
    2323.0004    172.586395     63.159874      2.721729      0.014297      0.106340
    2322.9004    170.020172     62.660965      2.717080      0.013242      0.098105
    2322.8004    168.112518     62.409027      2.713412      0.012554      0.090854
    2322.7004    166.917999     62.453209      2.711390      0.012193      0.085737
    2322.6004    166.499054     62.580147      2.711837      0.012243      0.083257
    2322.5004    167.073517     62.605042      2.715527      0.013043      0.083157
    2322.4004    168.621002     62.498497      2.721967      0.014851      0.084170
    2322.3004    170.885712     62.181747      2.730199      0.017552      0.083555
    2322.2004    173.553955     61.584702      2.739381      0.021047      0.078841
    2322.1004    176.380096     60.836403      2.748627      0.025662      0.070464
    2322.0004    179.208496     60.231796      2.755157      0.030436      0.061187
    2321.9004    181.996094     60.061363      2.755741      0.033233      0.054883
    2321.8004    184.724091     60.391403      2.750156      0.032885      0.054825
    2321.7004    187.121857     61.046326      2.740435      0.029123      0.062739
    2321.6004    188.864380     61.864052      2.730098      0.023232      0.077650
    2321.5004    189.757996     62.820412      2.724189      0.017949      0.096121
    2321.4004    189.425140     63.684822      2.725577      0.015349      0.112382
    2321.3004    187.720184     64.210754      2.729900      0.014625      0.122425
    2321.2004    184.964355     64.408737      2.732864      0.014138      0.125733
    2321.1004    181.831543     64.392975      2.735056      0.013305      0.124058
    2321.0004    179.069824     64.209274      2.736451      0.011561      0.120446
    2320.9004    177.135040     63.856071      2.734957      0.008034      0.117849
    2320.8004    176.243286     63.444359      2.731263      0.003457      0.118139
    2320.7004    176.038147     63.096169      2.727903     -0.000690      0.121057
    2320.6004    175.926178     62.874329      2.724869     -0.003266      0.124122
    2320.5004    175.672211     62.816467      2.721188     -0.004107      0.125111
    2320.4004    175.257263     62.956902      2.717756     -0.003563      0.123940
    2320.3004    174.879425     63.283249      2.716997     -0.002004      0.122089
    2320.2004    175.079742     63.654213      2.718615     -0.000027      0.121171
    2320.1004    175.908691     63.967140      2.721759      0.002036      0.121346
    2320.0004    176.516327     64.225784      2.726300      0.003607      0.120959
    2319.9004    176.369751     64.494492      2.730505      0.003777      0.118314
    2319.8004    175.225098     64.684692      2.730597      0.002252      0.112734
    2319.7004    172.774292     64.484680      2.725931      0.000191      0.104959
    2319.6004    168.935547     63.948189      2.719752     -0.001042      0.095001
    2319.5004    164.688080     63.473648      2.714715     -0.001045      0.083741
    2319.4004    161.131470     63.055435      2.710845     -0.000675      0.072855
    2319.3004    158.414795     62.392365      2.708708     -0.000339      0.062601
    2319.2004    156.806610     61.522713      2.711285      0.000498      0.053769
    2319.1004    156.445129     60.831665      2.719244      0.002310      0.046930
    2319.0004    157.082123     60.530693      2.730362      0.005158      0.042757
