# LAS format data
~Version Information
VERS.     2.00: CWLS LOG ASCII STANDARD - VERSION 2.0
WRAP.       NO: ONE LINE PER DEPTH STEP
~Well Information
#MNEM   .UNITS    DATA                           DESCRIPTION
#----   ------    ----                           -----------
STRT    .M        2750.9004                     :First Index Value
STOP    .M        0.2002                        :Last Index Value
STEP    .M        -0.1000                       :Frame Spacing
NULL    .         -999.2500                     :Absent Value
WELL    .         PAPEKOP-01                    :Well Name   
FLD     .         PAPEKOP                       :Field Name  
CNTY    .                                       :County
STAT    .                                       :State
CTRY    .                                       :Country
LOC     .                                       :Location
API     .                                       :API Number
DATE    .                                       :Date
COMP    .         NAM                           :Company Name
SRVC    .                                       :Service Company
~Parameter Information
#MNEM   .UNITS    VALUE                          DESCRIPTION
#----   ------    -----                          -----------
TDL     .M        2751.00000                    :Total Depth (Logger)
TDD     .M        2751.00000                    :Total Depth (Driller)   
UBID    .         2659                          :Unique Borehole Id  
PDAT    .         Mean Sea Level                :Permanent Datum 
EPD     .M           0.00000                    :Elevation of Permanent Datum (PDAT) above Mean Sea Level
LMF     .                                       :Logging Measured From (Name of Logging Elevation Reference) 
APD     .M           7.90000                    :Elevation of Depth Reference (LMF) Above Permanent Datum
~Curve Information
#MNEM   .UNITS    API CODE                       CURVE DESCRIPTION
#----   ------    --------                       -----------------
DEPT    .M                                      :1     Index curve
GR      .GAPI                                   :2     SNAM  
DT      .US/F                                   :3     SNAM  
RHOB    .G/C3                                   :4     SNAM  
DRHO    .G/C3                                   :5     SNAM  
NPHI    .V/V                                    :6     SNAM  
~Ascii Log Data
# ...
    1320.5004    198.403412    261.369812      2.293116      0.119840   -999.250000
    1320.4004    199.468506    260.062927      2.299986      0.119403   -999.250000
    1320.3004    200.112854    259.061401      2.289983      0.113098   -999.250000
    1320.2004    200.356445    258.409241      2.259279      0.104551   -999.250000
    1320.1004    199.773956    258.967712      2.210678      0.094877   -999.250000
    1320.0004    198.416321    261.524658      2.158283      0.085111   -999.250000
    1319.9004    197.407562    265.402710      2.118890      0.076056   -999.250000
    1319.8004    197.992188    268.888000      2.103485      0.066825   -999.250000
    1319.7004    200.386902    270.807068      2.119256      0.059355   -999.250000
    1319.6004    203.931946    271.303650      2.161125      0.056962   -999.250000
    1319.5004    207.736969    271.013245      2.215277      0.060927   -999.250000
    1319.4004    209.998047    269.778320      2.253741      0.067465   -999.250000
    1319.3004    209.749847    258.460205      2.258856      0.071376   -999.250000
    1319.2004    208.026611    219.061554      2.234997      0.069013   -999.250000
    1319.1004    206.312317    164.193573      2.205637      0.061281   -999.250000
    1319.0004    205.324585    124.377716      2.190004      0.051535   -999.250000
    1318.9004    205.665802    109.225769      2.197569      0.045320   -999.250000
    1318.8004    207.037384    106.233734      2.221025      0.046716   -999.250000
    1318.7004    208.531616    105.417007      2.246751      0.056313   -999.250000
    1318.6004    209.606110    104.220520      2.259170      0.071607   -999.250000
    1318.5004    210.100616    102.721817      2.255277      0.088143   -999.250000
    1318.4004    209.794556    101.277710      2.242281      0.102015   -999.250000
    1318.3004    208.799683    100.036758      2.224481      0.107394   -999.250000
    1318.2004    207.026398     98.421661      2.206626      0.104034   -999.250000
    1318.1004    203.875458     95.998886      2.201131      0.097975   -999.250000
    1318.0004    199.385406     93.978287      2.211246      0.089834   -999.250000
    1317.9004    194.384918     93.438568      2.240564      0.081785   -999.250000
    1317.8004    190.786438     93.632568      2.300493      0.086883   -999.250000
    1317.7004    189.717163     92.951462      2.357714      0.100410   -999.250000
    1317.6004    190.681549     91.623032      2.379519      0.109081   -999.250000
    1317.5004    192.618256     91.738251      2.381213      0.113961   -999.250000
    1317.4004    194.252899     92.961838      2.386338      0.117468   -999.250000
    1317.3004    194.478271     92.666229      2.398761      0.114548   -999.250000
    1317.2004    193.245789     90.989517      2.424343      0.103373   -999.250000
    1317.1004    191.834290     90.140671      2.461693      0.088456   -999.250000
    1317.0004    191.080292     90.863617      2.498118      0.074711   -999.250000
    1316.9004    190.472595     92.025406      2.519893      0.062523   -999.250000
    1316.8004    189.497711     92.775253      2.524159      0.053225   -999.250000
    1316.7004    188.385498     93.524323      2.513589      0.052996   -999.250000
    1316.6004    187.279297     94.843048      2.493974      0.061128   -999.250000
    1316.5004    186.266724     96.755890      2.468798      0.071873   -999.250000
    1316.4004    186.007935     98.777267      2.446539      0.080500   -999.250000
    1316.3004    186.915497    100.595764      2.436393      0.087221   -999.250000
    1316.2004    188.799683    102.056290      2.444357      0.094256   -999.250000
    1316.1004    191.153381    103.056915      2.463967      0.101892   -999.250000
    1316.0004    193.681732    103.408646      2.482829      0.108560   -999.250000
    1315.9004    195.701508    103.021591      2.491889      0.113184   -999.250000
    1315.8004    196.330536    102.412720      2.487658      0.117395   -999.250000
    1315.7004    195.725098    102.105026      2.469400      0.122501   -999.250000
    1315.6004    194.764771    102.176773      2.439997      0.127651   -999.250000
    1315.5004    193.917755    102.481232      2.409603      0.132674   -999.250000
    1315.4004    193.339600    102.888596      2.387477      0.135062   -999.250000
    1315.3004    193.278351    103.213654      2.375010      0.130471   -999.250000
    1315.2004    193.814697    103.238861      2.372775      0.119241   -999.250000
    1315.1004    194.895538    103.086319      2.379589      0.105255   -999.250000
    1315.0004    196.505463    103.168365      2.388006      0.091353   -999.250000
    1314.9004    198.616180    103.500961      2.390562      0.078844   -999.250000
    1314.8004    200.838654    103.913712      2.385315      0.070756   -999.250000
    1314.7004    202.579376    104.550232      2.375180      0.070460   -999.250000
    1314.6004    203.325684    105.413467      2.362428      0.077129   -999.250000
    1314.5004    202.902069    106.043411      2.349457      0.086330   -999.250000
    1314.4004    201.621246    105.954102      2.340409      0.095047   -999.250000
    1314.3004    200.224304    105.013779      2.337800      0.099749   -999.250000
    1314.2004    199.311920    103.429657      2.341592      0.098775   -999.250000
    1314.1004    198.640503    101.405426      2.351607      0.095422   -999.250000
    1314.0004    197.481964     99.247665      2.365403      0.093573   -999.250000
    1313.9004    195.343506     97.341736      2.378196      0.094775   -999.250000
    1313.8004    192.482452     95.953003      2.385904      0.098290   -999.250000
    1313.7004    189.977905     95.282578      2.385711      0.100846   -999.250000
    1313.6004    189.105591     95.308899      2.378751      0.100077   -999.250000
    1313.5004    190.463440     95.797806      2.369188      0.097429   -999.250000
    1313.4004    193.300415     96.605087      2.358562      0.094598   -999.250000
    1313.3004    196.005554     97.801025      2.345920      0.091949   -999.250000
    1313.2004    197.428467     99.285049      2.333083      0.089854   -999.250000
    1313.1004    197.876312    100.720566      2.321364      0.085940   -999.250000
    1313.0004    198.516632    101.833817      2.311088      0.077174   -999.250000
    1312.9004    200.056824    102.387192      2.306383      0.065695   -999.250000
    1312.8004    202.377258    101.961365      2.311171      0.056098   -999.250000
    1312.7004    204.745758    100.323303      2.322476      0.050174   -999.250000
    1312.6004    206.257568     97.890381      2.333100      0.047591   -999.250000
    1312.5004    206.552673     95.282532      2.339411      0.048871   -999.250000
    1312.4004    206.200043     93.124634      2.340578      0.054451   -999.250000
    1312.3004    206.186523     92.047882      2.336455      0.063868   -999.250000
    1312.2004    206.950806     92.077713      2.331994      0.078700   -999.250000
    1312.1004    208.137054     92.620056      2.330848      0.098071   -999.250000
    1312.0004    208.951263     93.215912      2.327320      0.113606   -999.250000
    1311.9004    208.644684     93.701645      2.318693      0.118349   -999.250000
    1311.8004    207.140747     93.962265      2.310328      0.113259   -999.250000
    1311.7004    204.910889     93.940536      2.305661      0.102745   -999.250000
    1311.6004    202.283783     93.628799      2.307421      0.092660   -999.250000
    1311.5004    199.625427     93.089493      2.317285      0.087285   -999.250000
    1311.4004    197.565002     92.492737      2.330210      0.085026   -999.250000
    1311.3004    196.569153     92.016479      2.339552      0.082336   -999.250000
    1311.2004    196.912933     91.774597      2.343018      0.078776   -999.250000
    1311.1004    198.892883     91.865158      2.340744      0.076173   -999.250000
    1311.0004    202.211914     92.315247      2.333464      0.075454   -999.250000
