# LAS format data
~Version Information
VERS.     2.00: CWLS LOG ASCII STANDARD - VERSION 2.0
WRAP.       NO: ONE LINE PER DEPTH STEP
~Well Information
#MNEM   .UNITS    DATA                           DESCRIPTION
#----   ------    ----                           -----------
STRT    .M        2750.9004                     :First Index Value
STOP    .M        0.2002                        :Last Index Value
STEP    .M        -0.1000                       :Frame Spacing
NULL    .         -999.2500                     :Absent Value
WELL    .         PAPEKOP-01                    :Well Name   
FLD     .         PAPEKOP                       :Field Name  
CNTY    .                                       :County
STAT    .                                       :State
CTRY    .                                       :Country
LOC     .                                       :Location
API     .                                       :API Number
DATE    .                                       :Date
COMP    .         NAM                           :Company Name
SRVC    .                                       :Service Company
~Parameter Information
#MNEM   .UNITS    VALUE                          DESCRIPTION
#----   ------    -----                          -----------
TDL     .M        2751.00000                    :Total Depth (Logger)
TDD     .M        2751.00000                    :Total Depth (Driller)   
UBID    .         2659                          :Unique Borehole Id  
PDAT    .         Mean Sea Level                :Permanent Datum 
EPD     .M           0.00000                    :Elevation of Permanent Datum (PDAT) above Mean Sea Level
LMF     .                                       :Logging Measured From (Name of Logging Elevation Reference) 
APD     .M           7.90000                    :Elevation of Depth Reference (LMF) Above Permanent Datum
~Curve Information
#MNEM   .UNITS    API CODE                       CURVE DESCRIPTION
#----   ------    --------                       -----------------
DEPT    .M                                      :1     Index curve
GR      .GAPI                                   :2     SNAM  
DT      .US/F                                   :3     SNAM  
RHOB    .G/C3                                   :4     SNAM  
DRHO    .G/C3                                   :5     SNAM  
NPHI    .V/V                                    :6     SNAM  
~Ascii Log Data
# ...
     898.1003    186.779480    119.813202      2.379746      0.016719   -999.250000
     898.0003    185.036713    119.890091      2.373152      0.014030   -999.250000
     897.9003    186.376984    120.549545      2.368261      0.009805   -999.250000
     897.8003    190.372681    121.514801      2.365884      0.004455   -999.250000
     897.7003    195.320801    122.512878      2.368248      0.000003   -999.250000
     897.6003    198.874420    123.491257      2.375311     -0.001408   -999.250000
     897.5003    199.918854    124.587311      2.381607     -0.000100   -999.250000
     897.4003    199.043304    125.853363      2.382703      0.002882   -999.250000
     897.3003    197.982147    127.099899      2.378471      0.006236   -999.250000
     897.2003    198.050201    128.312653      2.369000      0.008376   -999.250000
     897.1003    199.357941    129.362793      2.357859      0.007884   -999.250000
     897.0003    200.750275    130.018372      2.350243      0.005113   -999.250000
     896.9003    200.772156    130.084106      2.346911      0.001373   -999.250000
     896.8003    198.570282    129.221222      2.347650     -0.000670   -999.250000
     896.7003    194.777100    127.142502      2.351832      0.000530   -999.250000
     896.6003    190.774902    123.842117      2.355368      0.003304   -999.250000
     896.5003    187.999359    120.413330      2.355727      0.005018   -999.250000
     896.4003    186.439301    117.570862      2.355914      0.005332   -999.250000
     896.3003    185.701813    115.385986      2.358089      0.003592   -999.250000
     896.2003    185.284210    113.844833      2.362376      0.000781   -999.250000
     896.1003    184.964050    113.355743      2.369351     -0.000180   -999.250000
     896.0003    185.459534    114.177505      2.376010      0.001408   -999.250000
     895.9003    187.754211    115.616852      2.377618      0.003360   -999.250000
     895.8003    191.643921    117.013794      2.374166      0.004331   -999.250000
     895.7003    195.414856    118.182083      2.367729      0.003768   -999.250000
     895.6003    197.338379    119.226746      2.360764      0.002154   -999.250000
     895.5003    196.866516    120.261795      2.355367      0.001179   -999.250000
     895.4003    194.729980    121.326935      2.351982      0.002059   -999.250000
     895.3003    191.895477    122.481766      2.349482      0.004799   -999.250000
     895.2003    189.366974    123.610352      2.347624      0.009289   -999.250000
     895.1003    187.970337    124.535065      2.347329      0.015674   -999.250000
     895.0003    187.759216    125.271500      2.349119      0.023390   -999.250000
     894.9003    188.506958    125.861099      2.351648      0.028348   -999.250000
     894.8003    190.024780    126.419800      2.352283      0.025550   -999.250000
     894.7003    192.428680    127.076538      2.351278      0.014334   -999.250000
     894.6003    195.488525    127.703110      2.353903      0.000837   -999.250000
     894.5003    198.574432    128.165588      2.362113     -0.009117   -999.250000
     894.4003    200.519409    128.479156      2.369207     -0.014049   -999.250000
     894.3003    200.406219    128.646576      2.370139     -0.013897   -999.250000
     894.2003    198.496613    128.516632      2.365429     -0.009523   -999.250000
     894.1003    195.617371    127.880524      2.355765     -0.003912   -999.250000
     894.0003    192.209503    126.631958      2.346035      0.000513   -999.250000
     893.9003    188.396576    124.820145      2.342361      0.003889   -999.250000
     893.8003    184.980713    122.819366      2.346412      0.005915   -999.250000
     893.7003    182.503113    121.074036      2.356294      0.006502   -999.250000
     893.6003    181.342987    119.890320      2.370535      0.006039   -999.250000
     893.5003    181.815582    119.236740      2.386940      0.005247   -999.250000
     893.4003    183.482910    119.098740      2.402252      0.004997   -999.250000
     893.3003    185.201019    119.624481      2.412137      0.005744   -999.250000
     893.2003    186.207214    120.506851      2.413485      0.006858   -999.250000
     893.1003    186.759064    121.201553      2.405827      0.007291   -999.250000
     893.0003    187.646484    121.479752      2.390841      0.006513   -999.250000
     892.9003    189.577911    121.442047      2.373223      0.004476   -999.250000
     892.8003    192.396118    121.199829      2.358688      0.001655   -999.250000
     892.7003    195.126984    120.731155      2.350533     -0.000978   -999.250000
     892.6003    196.973816    120.062149      2.349216     -0.002573   -999.250000
     892.5003    197.470062    119.441666      2.353199     -0.002911   -999.250000
     892.4003    196.453857    119.174377      2.360065     -0.002263   -999.250000
     892.3003    194.325775    119.275558      2.368511     -0.000796   -999.250000
     892.2003    191.958618    119.497437      2.376861      0.000843   -999.250000
     892.1003    190.185120    119.596680      2.382192      0.001569   -999.250000
     892.0003    189.342316    119.485413      2.383658      0.001535   -999.250000
     891.9003    189.424438    119.184174      2.382172      0.001380   -999.250000
     891.8003    190.238159    118.743179      2.378444      0.000888   -999.250000
     891.7003    191.652649    118.213287      2.374125      0.000298   -999.250000
     891.6003    193.757446    117.668015      2.371460      0.000514   -999.250000
     891.5003    196.520599    117.196838      2.370528      0.001540   -999.250000
     891.4003    199.043579    116.880203      2.369566      0.002520   -999.250000
     891.3003    199.918121    116.720764      2.367835      0.002878   -999.250000
     891.2003    198.611908    116.672577      2.366859      0.002866   -999.250000
     891.1003    195.910431    116.812439      2.368378      0.003260   -999.250000
     891.0003    193.101288    117.385193      2.372864      0.005198   -999.250000
     890.9003    191.158508    118.533585      2.379562      0.009541   -999.250000
     890.8003    190.479034    120.055740      2.386395      0.015670   -999.250000
     890.7003    190.713684    121.637177      2.390370      0.021513   -999.250000
     890.6003    191.160889    123.178741      2.388858      0.024544   -999.250000
     890.5003    191.590698    124.782852      2.381596      0.023358   -999.250000
     890.4003    192.295685    126.374329      2.371424      0.019098   -999.250000
     890.3003    193.372711    127.623077      2.362352      0.014762   -999.250000
     890.2003    194.522369    128.445709      2.356211      0.012295   -999.250000
     890.1003    195.239807    129.013855      2.352725      0.011532   -999.250000
     890.0003    195.051880    129.277374      2.351650      0.012070   -999.250000
     889.9003    193.759308    128.970306      2.352885      0.014457   -999.250000
     889.8003    191.596497    127.993546      2.355806      0.018592   -999.250000
     889.7003    188.985718    126.468887      2.360152      0.022475   -999.250000
     889.6003    186.097015    124.510956      2.367676      0.023758   -999.250000
     889.5003    182.989014    122.301468      2.380842      0.021741   -999.250000
     889.4003    180.047882    120.041519      2.400310      0.017769   -999.250000
     889.3003    178.181030    117.778076      2.423722      0.014202   -999.250000
     889.2003    178.277008    115.617691      2.444757      0.012573   -999.250000
     889.1003    180.335114    113.782135      2.456629      0.012345   -999.250000
     889.0003    183.258972    112.495010      2.456553      0.011552   -999.250000
     888.9003    185.660767    111.926926      2.448393      0.009020   -999.250000
     888.8003    186.610870    112.302658      2.438776      0.005223   -999.250000
     888.7003    186.017700    113.718719      2.431338      0.001592   -999.250000
     888.6003    185.127808    115.863205      2.426364     -0.000416   -999.250000
